retailer_name,onboarding_date,onboarding_status,area_classification,zone_name,city_name,latitude,longitude
"G1538* agarwal store","2020-10-08 18:30:00.000000",Active,Gurgaon-GT,NCR,Gurgaon,28.459,77.044
"G1380* Ankit vita dairy (sector - 28)","2020-07-30 18:30:00.000000",Active,Gurgaon-GT,NCR,Gurgaon,28.46375346,77.08387628
"G1360* ashyan enterprises (chill)","2020-09-18 18:30:00.000000",Active,Gurgaon-GT,NCR,Gurgaon,28.422,77.09
"G1402* Balaji General Store Vakil Market","2020-08-23 18:30:00.000000",Active,Gurgaon-GT,NCR,Gurgaon,28.47367,77.08012
"G1346* balnath store 56","2020-10-28 18:30:00.000000",Active,Gurgaon-GT,NCR,Gurgaon,28.43,77.103
"G1042* brijwashi daily needs(sector-46)","2020-09-20 18:30:00.000000",Active,Gurgaon-GT,NCR,Gurgaon,28.435,77.059
"G1302* daily mart (Takshila Hights) (Amit)","2020-10-20 18:30:00.000000",Active,Gurgaon-GT,NCR,Gurgaon,28.449,76.986
"G1299* DAILY NEEDS SECTOR - 37C (Amit)","2020-10-20 18:30:00.000000",Active,Gurgaon-GT,NCR,Gurgaon,28.452,76.988
"G1114* Daily Needs-69","2020-10-29 18:30:00.000000",Active,Gurgaon-GT,NCR,Gurgaon,28.394,77.032
"G1110* dheeraj super mart 70","2020-11-24 18:30:00.000000",Active,Gurgaon-GT,NCR,Gurgaon,28.386,77.022
"G1081* ekta dairy","2020-10-09 18:30:00.000000",Active,Gurgaon-GT,NCR,Gurgaon,28.418,77.056
"G1115* fresh choice 70","2020-11-06 18:30:00.000000",Active,Gurgaon-GT,NCR,Gurgaon,28.395,77.032
"G1389* Froceries (Essel tower)","2020-08-15 18:30:00.000000",Active,Gurgaon-GT,NCR,Gurgaon,28.477,77.074
"G1225* froceries (sector 65)","2020-11-08 18:30:00.000000",Active,Gurgaon-GT,NCR,Gurgaon,28.403,77.066
"G1306* Gopal ji(Amit)","2020-10-29 18:30:00.000000",Active,Gurgaon-GT,NCR,Gurgaon,28.455,76.977
"G1003* HAPPY GROCERY MART (Amit)","2021-03-15 18:30:00.000000",Active,Gurgaon-GT,NCR,Gurgaon,28.5,77.065
"G1046* haryana kishan mandi (sector -52)","2020-10-26 18:30:00.000000",Active,Gurgaon-GT,NCR,Gurgaon,28.44,77.078
"G1079* haryana kishan mandi (south city 2)","2020-10-26 18:30:00.000000",Active,Gurgaon-GT,NCR,Gurgaon,28.417,77.051
"G1103* ishanvi mart","2020-10-05 18:30:00.000000",Active,Gurgaon-GT,NCR,Gurgaon,28.41759768,77.02848413
"G1041* jagdamba super mart","2020-09-12 18:30:00.000000",Active,Gurgaon-GT,NCR,Gurgaon,28.435,77.06
"G1004* jai mata di deapartment store (Amit)","2020-10-26 18:30:00.000000",Active,Gurgaon-GT,NCR,Gurgaon,28.51802,77.07914
"G1122* jai shree balaji (sector-72)","2020-09-22 18:30:00.000000",Active,Gurgaon-GT,NCR,Gurgaon,28.4106058,77.03503866
"G1370* Kalindi departmental store","2020-10-26 18:30:00.000000",Active,Gurgaon-GT,NCR,Gurgaon,28.39662,77.06128
"G1146* khatana general store(Amit)","2020-10-26 18:30:00.000000",Active,Gurgaon-GT,NCR,Gurgaon,28.473,77.048
"G1020* kirana mart(Amit)","2020-10-25 18:30:00.000000",Active,Gurgaon-GT,NCR,Gurgaon,28.51271,77.03817
"G1087* komal store","2020-10-09 18:30:00.000000",Active,Gurgaon-GT,NCR,Gurgaon,28.42487,77.05888
"G1358* lakshay bakery (sector-56)","2020-09-18 18:30:00.000000",Active,Gurgaon-GT,NCR,Gurgaon,28.423,77.093
"G1470* local vendor","2020-08-12 18:30:00.000000",Active,NCR-UB,NCR,Gurgaon,NULL,NULL
"G1002* Om all fresh (sector-22A) (Amit)","2020-11-08 18:30:00.000000",Active,Gurgaon-GT,NCR,Gurgaon,28.5,77.065
"G1378* Shivam Vita Dairy 1","2020-08-08 18:30:00.000000",Active,Gurgaon-GT,NCR,Gurgaon,28.4683185,77.0917691
"G1044* shubham general store (sector-52)","2020-10-07 18:30:00.000000",Active,Gurgaon-GT,NCR,Gurgaon,28.442,77.076
"G1295* shree siddhi vinayak super mart(Amit)","2020-10-29 18:30:00.000000",Active,Gurgaon-GT,NCR,Gurgaon,28.442,77.009
"G1045* supermarche 52","2020-12-13 18:30:00.000000",Active,Gurgaon-GT,NCR,Gurgaon,28.441,77.078
"G1029* TODAY BAZAAR(Amit)","2020-11-20 18:30:00.000000",Active,Gurgaon-GT,NCR,Gurgaon,28.503,77.032
"G1471* AAIDEA SOLUTIONS PRIVATE LIMITED (milk basket) (Amit)","2020-11-27 18:30:00.000000",Active,NCR-ON-MT,NCR,Gurgaon,NULL,NULL
"G1347* Hewo Supermart (Sector 56)","2020-10-27 18:30:00.000000",Active,Gurgaon-GT,NCR,Gurgaon,28.429,77.101
"G1040* Quality mart","2020-12-15 18:30:00.000000",Active,Gurgaon-GT,NCR,Gurgaon,28.428,77.05
"G1134* laxmi general store sector 15-1(Amit)","2020-11-24 18:30:00.000000",Active,Gurgaon-GT,NCR,Gurgaon,28.449,77.036
"G1351* j.v.t milk (sector-56)","2020-09-18 18:30:00.000000",Active,Gurgaon-GT,NCR,Gurgaon,28.43,77.097
"G1142* Quik pick store (Amit)","2020-12-14 18:30:00.000000",Active,Gurgaon-GT,NCR,Gurgaon,28.4705068,77.0383012
"G1277* F&B 24 (KISAN MANDI) (Amit)","2020-12-14 18:30:00.000000",Active,Gurgaon-GT,NCR,Gurgaon,28.502,77.028
"G1077* sandeep fruit & VEG","2020-12-15 18:30:00.000000",Active,Gurgaon-GT,NCR,Gurgaon,28.416,77.045
"G1185* jagdamba general store (Amit)","2020-12-15 18:30:00.000000",Active,Gurgaon-GT,NCR,Gurgaon,28.39181,76.95898
"G1170* KISAN MANDI VATIKA TOWN SQUARE(Amit)","2020-12-18 18:30:00.000000",Active,Gurgaon-GT,NCR,Gurgaon,28.389,76.969
"G1061* ganesh fruit & veg","2020-12-18 18:30:00.000000",Active,Gurgaon-GT,NCR,Gurgaon,28.426,77.043
"G1234* Smart Needs M3M(R)","2020-12-29 18:30:00.000000",Active,Gurgaon-GT,NCR,Gurgaon,28.389,77.06
"G1492* Yadav Traders (R)","2020-12-20 18:30:00.000000",Active,Gurgaon-GT,NCR,Gurgaon,28.49,77.094
"G1313* Balaji Super Store (amit)","2020-12-24 18:30:00.000000",Active,Gurgaon-GT,NCR,Gurgaon,28.463,77.01
"G1437* Happy Grocery Mart (Rajeev)","2020-12-25 18:30:00.000000",Active,Gurgaon-GT,NCR,Gurgaon,28.453,77.08
"G1472* local Vendor (SAHIL)","2020-12-26 18:30:00.000000",Active,NCR-UB,NCR,Gurgaon,NULL,NULL
"G1366* Azad Dairy Sec-57 (R)","2020-12-06 18:30:00.000000",Active,Gurgaon-GT,NCR,Gurgaon,28.421,77.076
"G1181* Balaji Super Mart","2020-12-29 18:30:00.000000",Active,Gurgaon-GT,NCR,Gurgaon,28.395,76.958
"G1276* BANDHU SUPER MART (Amit)","2021-01-03 18:30:00.000000",Active,Gurgaon-GT,NCR,Gurgaon,28.509,77.027
"D2044* Brijwasi Dep store (ABHI)","2021-01-04 18:30:00.000000",Active,Delhi-GT,NCR,Delhi,28.59,77.061
"G1065* amit gen store (v)","2021-01-05 18:30:00.000000",Active,Gurgaon-GT,NCR,Gurgaon,28.434,77.069
"D2052* Gayatri Premium Mart (ABHI)","2021-01-07 18:30:00.000000",Active,Delhi-GT,NCR,Delhi,28.588,77.072
"G1446* Jarnail Enterprises Sector-53(Rahul)","2021-01-10 18:30:00.000000",Active,Gurgaon-GT,NCR,Gurgaon,28.443,77.101
"G1054* 9 O NINE","2021-01-11 18:30:00.000000",Active,Gurgaon-GT,NCR,Gurgaon,28.433,77.075
"G1043* Green Chick Chop Sec-46(vikas)","2021-01-12 18:30:00.000000",Active,Gurgaon-GT,NCR,Gurgaon,28.435,77.06
"D2274* H.N Enterprises (Saket) (ABHI)","2021-01-17 18:30:00.000000",Active,Delhi-GT,NCR,Delhi,28.523,77.215
"D2087* GR Food Emporioes (Alaknanda)(ABHI)","2021-01-17 18:30:00.000000",Active,Delhi-GT,NCR,Delhi,28.528,77.247
"D2088* Green Chick Chop (kailash colony)(ABHI)","2021-01-17 18:30:00.000000",Active,Delhi-GT,NCR,Delhi,28.553,77.242
"D2356* VS Enterprises (lodhi road)(ABHI)","2021-01-17 18:30:00.000000",Active,Delhi-GT,NCR,Delhi,28.581,77.221
"D2089* GR Food Emporioes malviya (ABHI)","2021-01-17 18:30:00.000000",Active,Delhi-GT,NCR,Delhi,28.534,77.209
"D2090* GR Food Emporioes Commercial Shop (ABHI)","2021-01-17 18:30:00.000000",Active,Delhi-GT,NCR,Delhi,28.541,77.235
"D2275* H.N Enterprises Shop no-15(Defence Colony) (ABHI)","2021-01-17 18:30:00.000000",Active,Delhi-GT,NCR,Delhi,28.577,77.238
"D2276* Green Chick Chop (Yusuf Sarai) (ABHI)","2021-01-17 18:30:00.000000",Active,Delhi-GT,NCR,Delhi,28.558,77.207
"D2277* Green Chick Chop Safdarjung Enclave (ABHI)","2021-01-17 18:30:00.000000",Active,Delhi-GT,NCR,Delhi,28.562,77.201
"D2278* Jarnail Enterprises Vasant Vihar (ABHI)","2021-01-17 18:30:00.000000",Active,Delhi-GT,NCR,Delhi,28.561,77.16
"D2279* Green Chick Chop Vasant Kunj (ABHI)","2021-01-17 18:30:00.000000",Active,Delhi-GT,NCR,Delhi,28.532,77.154
"D2091* GR Food Emporioes Square Mall (ABHI)","2021-01-17 18:30:00.000000",Active,Delhi-GT,NCR,Delhi,28.525,77.157
"G1015* KISHORE FRESH FRUIT & VEGETABLES","2021-01-18 18:30:00.000000",Active,Gurgaon-GT,NCR,Gurgaon,28.511,77.049
"D2280* H.N Enterprises Supreme Plaza (ABHI)","2021-01-19 18:30:00.000000",Active,Delhi-GT,NCR,Delhi,28.592,77.059
"G1080* Green Chick 49 (V)","2021-01-21 18:30:00.000000",Active,Gurgaon-GT,NCR,Gurgaon,28.419,77.053
"G1317* Green Chick Chop (railway road) (Amit)","2021-01-22 18:30:00.000000",Active,Gurgaon-GT,NCR,Gurgaon,28.47096,77.01895
"G1440* Green Chick Vyapar kendra (rajeev)","2021-01-23 18:30:00.000000",Active,Gurgaon-GT,NCR,Gurgaon,28.461,77.083
"D2003* Rajeev Store (ABHI)","2021-01-26 18:30:00.000000",Active,Delhi-GT,NCR,Delhi,28.528,77.256
"D2004* Dawar Store (ABHI)","2021-01-26 18:30:00.000000",Active,Delhi-GT,NCR,Delhi,28.529,77.254
"G1177* Green Chick Chop (Sapphier Mall)(Amit)","2021-02-02 18:30:00.000000",Active,Gurgaon-GT,NCR,Gurgaon,28.393,76.968
"G1139* Green Chick Chop Sec15-2 (amit)","2021-02-01 18:30:00.000000",Active,Gurgaon-GT,NCR,Gurgaon,28.459,77.043
"G1086* Jitendra Fruits and Veg(VIKAS)","2021-02-03 18:30:00.000000",Active,Gurgaon-GT,NCR,Gurgaon,28.414,77.066
"F3002* Sapra Food Enterprises (Abhi)","2021-02-06 18:30:00.000000",Active,Gurgaon-GT,NCR,Faridabad,NULL,NULL
"G1304* Ashok General Store (amit)","2021-02-05 18:30:00.000000",Active,Gurgaon-GT,NCR,Gurgaon,28.448,76.983
"D2015* The Chick Choice (abhi)","2021-02-08 18:30:00.000000",Active,Delhi-GT,NCR,Delhi,28.543,77.253
"D2033* Goyal store (Abhi)","2021-02-08 18:30:00.000000",Active,Delhi-GT,NCR,Delhi,28.582,77.221
"G1188* Haryana Fresh Kisan Mandi (amit)","2021-02-11 18:30:00.000000",Active,Gurgaon-GT,NCR,Gurgaon,28.403,76.937
"G1482* Super Infotech Solutions PVT LTD","2021-02-12 18:30:00.000000",Active,NCR-ON-MT,NCR,Delhi,NULL,NULL
"G1671* SPENCERS Aardee City","2021-02-13 18:30:00.000000",Active,NCR-OF-MT,NCR,Gurgaon,28.44172,77.07364
"F3025* SPENCERS FaridabadSECTOR-29 HUDA MARKET","2021-02-14 18:30:00.000000",Active,NCR-OF-MT,NCR,Faridabad,28.43337,77.31943
"N4003* SPENCERS  LOWER GROUND , SECTOR 48, NOIDA","2021-02-15 18:30:00.000000",Active,NCR-OF-MT,NCR,Noida,28.55536,77.37057
"N4001* SPENCER'S SUPER TECH SHOPPRIX SECTOR-61, NOIDA","2021-02-15 18:30:00.000000",Active,NCR-OF-MT,NCR,Noida,28.59733,77.36258
"G1485* SPENCER'S SECTOR - 4, CROSSING OLD RAILWAY ROAD GURGAON","2021-02-14 18:30:00.000000",Active,NCR-OF-MT,NCR,Gurgaon,28.47311,77.01538
"N4002* SPENCERS RETAIL LTD NORTH EYENAGAR NOIDA","2021-02-15 18:30:00.000000",Active,NCR-OF-MT,NCR,Noida,28.59725,77.36259
"N4004* SPENCERS SECTOR-51, GAUTAM BUDDHA NAGAR TAHSIL  NOIDA-","2021-02-15 18:30:00.000000",Active,NCR-OF-MT,NCR,Noida,28.5796,77.36377
"D2067* Shyam Super Store Sector-12 (abhi)","2021-02-16 18:30:00.000000",Active,Delhi-GT,NCR,Delhi,28.592,77.045
"D2037* Sardar Meat Shop Khanna MKT (Abhi)","2021-02-19 18:30:00.000000",Active,Delhi-GT,NCR,Delhi,28.584,77.221
"G1091* M2k Store (V)","2021-03-02 18:30:00.000000",Active,Gurgaon-GT,NCR,Gurgaon,28.42657,77.0553
"G1404* Need Garments DLF PHASE2 (R)","2021-03-08 18:30:00.000000",Active,Gurgaon-GT,NCR,Gurgaon,28.482,77.086
"G1053* Sara mart Sec 52 (V)","2021-03-09 18:30:00.000000",Active,Gurgaon-GT,NCR,Gurgaon,28.435,77.078
"G1293* TOPADHANI MORDEN BAZAAR (amit)","2021-03-10 18:30:00.000000",Active,Gurgaon-GT,NCR,Gurgaon,28.441,77.007
"G1316* A Family Super Railway Road (amit)","2021-03-12 18:30:00.000000",Active,Gurgaon-GT,NCR,Gurgaon,28.483,77.014
"D2318* Shiva store","2021-03-26 10:58:33.000000",Active,Delhi-GT,NCR,Delhi,28.531,77.254
"G1488* Big Basket (G)","2021-03-25 18:30:00.000000",Active,NCR-ON-MT,NCR,Gurgaon,NULL,NULL
"G1258* Sri ashirwad Megha Mart Sec 107 (amit)","2021-04-06 05:05:09.000000",Active,Gurgaon-GT,NCR,Gurgaon,28.515,76.974
"G1260* Balaji Mega mart (amit)","2021-04-06 05:10:38.000000",Active,Gurgaon-GT,NCR,Gurgaon,28.50667,77.00211
"G1457* Mother Dairy 924 Sector 23 (amit)","2021-03-27 18:30:00.000000",Active,Gurgaon-GT,NCR,Gurgaon,28.511,77.049
"G1099* Real fresh","2021-04-10 12:25:51.000000",Active,Gurgaon-GT,NCR,Gurgaon,28.40605,77.04628
"D2207* Sahni confectioner","2021-04-12 07:13:31.000000",Active,Delhi-GT,NCR,Delhi,28.537,77.248
"D2124* Mother dairy Booth 37","2021-04-12 07:13:31.000000",Active,Delhi-GT,NCR,Delhi,28.544,77.23
"D2208* Love store","2021-04-12 07:23:12.000000",Active,Delhi-GT,NCR,Delhi,28.534,77.244
"D2125* Khandelwal store","2021-04-12 07:27:27.000000",Active,Delhi-GT,NCR,Delhi,28.534,77.244
"D2211* Bio greens","2021-04-12 07:32:27.000000",Active,Delhi-GT,NCR,Delhi,28.547,77.244
"G1027* Harish Di Hatti","2021-04-12 07:36:44.663948",Active,Gurgaon-GT,NCR,Gurgaon,28.508,77.031
"D2130* Hari ram baghel store","2021-04-12 07:41:59.000000",Active,Delhi-GT,NCR,Delhi,28.559,77.228
"D2139* Basudev store","2021-04-12 08:15:10.000000",Active,Delhi-GT,NCR,Delhi,28.54,77.249
"D2143* Nadeem fruits","2021-04-12 08:24:55.000000",Active,Delhi-GT,NCR,Delhi,28.469,77.187
"D2172* Gupta plastic store","2021-04-12 08:31:11.000000",Active,Delhi-GT,NCR,Delhi,28.521,77.216
"D2149* Diamond super store","2021-04-13 08:21:59.918206",Active,Delhi-GT,NCR,Delhi,28.568,77.279
"D2226* Family needs super market","2021-04-13 15:43:38.577435",Active,Delhi-GT,NCR,Delhi,28.565,77.279
"D2110* Ujjwal fresh fruits &Vegetable","2021-04-13 16:04:59.000000",Active,Delhi-GT,NCR,Delhi,28.56,77.06
"D2165* Delhi fruit & vegetable (niti bagh)","2021-04-16 14:28:46.000000",Active,Delhi-GT,NCR,Delhi,28.56,77.218
"D2166* Neeti store","2021-04-16 14:33:08.000000",Active,Delhi-GT,NCR,Delhi,28.559,77.215
"D2162* Shri mahadev store kidwani nagar","2021-04-16 14:36:00.000000",Active,Delhi-GT,NCR,Delhi,28.574,77.217
"F3021* Delighted GROCERS(Faridabad)","2021-04-16 14:45:00.000000",Active,Gurgaon-GT,NCR,Faridabad,NULL,NULL
"G1100* Garima Store Sector-50","2021-04-20 12:36:37.000000",Active,Gurgaon-GT,NCR,Gurgaon,28.41382,77.06583
"D2245* Shiv provision store","2021-04-20 14:07:54.000000",Active,Delhi-GT,NCR,Delhi,28.537,77.248
"D2246* Garg store","2021-04-20 14:14:11.000000",Active,Delhi-GT,NCR,Delhi,28.534,77.244
"D2173* In & out","2021-04-23 17:07:17.000000",Active,Delhi-GT,NCR,Delhi,28.569,77.222
"D2171* Gupta Groceries","2021-04-23 17:18:26.729079",Active,Delhi-GT,NCR,Delhi,28.574,77.217
"D2251* Kerala store","2021-04-24 14:45:59.024185",Active,Delhi-GT,NCR,Delhi,28.534,77.23
"D2178* Verma provision super store","2021-04-27 14:56:47.047800",Active,Delhi-GT,NCR,Delhi,28.52,77.212
"D2199* 7 Horses Enterprises","2021-04-27 15:02:31.000000",Active,Delhi-GT,NCR,Delhi,28.516,77.206
"D2269* king bazar","2021-04-27 15:16:42.000000",Active,Delhi-GT,NCR,Delhi,28.509,77.201
"D2201* Sadar Bazar","2021-04-27 15:23:57.000000",Active,Delhi-GT,NCR,Delhi,28.513,77.203
"D2197* DMS 1287-88 (GK 2)","2021-05-03 15:01:39.000000",Active,Delhi-GT,NCR,Delhi,28.54,77.239
"G1291* Alka Mart New","2021-05-03 20:31:57.494227",Active,Gurgaon-GT,NCR,Gurgaon,28.519,77.016
"D2118* Morning choice(Kailash colony)","2021-05-05 02:31:12.508299",Active,Delhi-GT,NCR,Delhi,28.553,77.243
"D2119* MRPC Wholesale HuB(Govindpuri Extn)","2021-05-06 14:55:22.814184",Active,Delhi-GT,NCR,Delhi,28.535,77.258
"D2306* B.R chawla store","2021-05-08 17:39:14.728880",Active,Delhi-GT,NCR,Delhi,28.582,77.179
"D2282* Imran store","2021-05-11 04:58:10.733867",Active,Delhi-GT,NCR,Delhi,28.522,77.216
"D2311* Morning Store","2021-05-15 06:53:55.436753",Active,Delhi-GT,NCR,Delhi,28.523,77.159
"D2312* Mother dairy 137","2021-05-15 06:56:29.663520",Active,Delhi-GT,NCR,Delhi,28.523,77.159
"G1463* Spencer Retail ardee city (vikas)","2021-02-13 18:30:00.000000",Active,NCR-OF-MT,NCR,Gurgaon,28.44341,77.07734
"G1642* samar departmental store(Amit)","2021-05-14 18:30:00.000000",Active,Gurgaon-GT,NCR,Gurgaon,28.509,77.031
"F3026* SPENCERS S21 FARIDABAD","2021-05-14 18:30:00.000000",Active,NCR-OF-MT,NCR,Faridabad,28.43084,77.29403
"D2322* Pal super store(Vasant vihar)","2021-05-17 17:41:03.000000",Active,Delhi-GT,NCR,Delhi,28.568,77.159
"D2326* Sunder general store","2021-05-18 16:56:10.205274",Active,Delhi-GT,NCR,Delhi,28.525,77.192
"D2328* SAVERS BAZAAR(Govindpuri) ","2021-05-19 08:18:56.222794",Active,Delhi-GT,NCR,Delhi,28.54,77.262
"G1693* Shanti Super Store","2021-05-24 11:25:46.414392",Active,Gurgaon-GT,NCR,Gurgaon,28.479,77.061
"D2341* 3840 Easy day. Jaitpur","2021-05-24 12:11:30.000000",Active,NCR-OF-MT,NCR,Gurgaon,NULL,NULL
"D2342* 7337 Easy day Satya Niketan","2021-05-24 12:14:36.000000",Active,NCR-OF-MT,NCR,Gurgaon,NULL,NULL
"D2343* 7343 easy day Lajpat nagar","2021-05-24 12:19:31.000000",Active,NCR-OF-MT,NCR,Gurgaon,NULL,NULL
"D2344* 7345 Easy day Tuglakabad","2021-05-24 12:22:34.000000",Active,NCR-OF-MT,NCR,Gurgaon,NULL,NULL
"D2345* 7365 Easy day Bhagwan nagar","2021-05-24 12:25:55.000000",Active,NCR-OF-MT,NCR,Gurgaon,NULL,NULL
"D2346* A. K Departmental store (Govindpuri)","2021-05-24 16:23:12.000000",Active,Delhi-GT,NCR,Delhi,28.535,77.258
"D2348* 7366 EASY DAY SARITA VIHAR","2021-05-25 03:25:50.000000",Active,NCR-OF-MT,NCR,Gurgaon,NULL,NULL
"D2349* 7377   easy day katwaria sarai","2021-05-25 03:29:26.000000",Active,NCR-OF-MT,NCR,Gurgaon,NULL,NULL
"D2350* 7381 EASYDAY MASIHGARH JAMIA NAGAR","2021-05-25 03:33:40.000000",Active,NCR-OF-MT,NCR,Gurgaon,NULL,NULL
"D2351* 7382 EASYDAY SAFDARJUNG ENCLAVE","2021-05-25 03:38:20.000000",Active,NCR-OF-MT,NCR,Gurgaon,NULL,NULL
"D2352* 7383  EASYDAY  AYA   NAGAR","2021-05-25 03:41:23.000000",Active,NCR-OF-MT,NCR,Gurgaon,NULL,NULL
"D2353* 7391  EASYDAY  KILOKARI","2021-05-25 03:44:51.000000",Active,NCR-OF-MT,NCR,Gurgaon,NULL,NULL
"D2354* 3842  EASYDAY  MEETHAPUR","2021-05-25 03:47:54.000000",Active,NCR-OF-MT,NCR,Gurgaon,NULL,NULL
"D2355* 7393  EASYDAY  GHITHORNI","2021-05-25 03:50:55.000000",Active,NCR-OF-MT,NCR,Gurgaon,NULL,NULL
"G1697* Farmers fresh kishan mandi 45","2021-05-25 11:06:08.000000",Active,Gurgaon-GT,NCR,Gurgaon,28.445,77.063
"G1706* Murti fruit & vegetables","2021-05-27 13:01:33.000000",Active,Gurgaon-GT,NCR,Gurgaon,28.508,77.031
"G1708* HARISH BAKER'S & CONFECTIONERS PVT LTD","2021-05-27 13:06:28.335097",Active,Gurgaon-GT,NCR,Gurgaon,28.452,77.044
"D2358* Mark super store","2021-05-28 04:15:31.485947",Active,Delhi-GT,NCR,Delhi,28.565,77.286
"D2359* Averon enterprise(jamia","2021-05-28 04:18:54.000000",Active,Delhi-GT,NCR,Delhi,28.551,77.3
"D2362* Rahim general store","2021-05-28 04:28:02.000000",Active,Delhi-GT,NCR,Delhi,28.468,77.187
"G1710* Alka mart 70","2021-05-28 09:57:25.861407",Active,Gurgaon-GT,NCR,Gurgaon,28.394,77.022
"D2365* 3900 easyday zakir nagar","2021-05-29 07:25:27.000000",Active,NCR-OF-MT,NCR,Gurgaon,NULL,NULL
"D2366* 4201 Easy DAY DEVLI ROAD KHANPUR","2021-05-29 07:43:19.000000",Active,NCR-OF-MT,NCR,Gurgaon,NULL,NULL
"D2367* 5118 EASY DAY PEEPAL VALA CHOWK","2021-05-29 07:49:48.000000",Active,NCR-OF-MT,NCR,Gurgaon,NULL,NULL
"D2368* 7247 EASY DAY DARIA GANJ","2021-05-29 07:53:57.000000",Active,NCR-OF-MT,NCR,Gurgaon,NULL,NULL
"D2369* 7256 EASY DAY ARJUN NAGAR KOTLA","2021-05-29 08:00:13.000000",Active,NCR-OF-MT,NCR,Gurgaon,NULL,NULL
"D2370* 7282 EASYDAY JUNGPURA","2021-05-29 08:08:10.000000",Active,NCR-OF-MT,NCR,Gurgaon,NULL,NULL
"D2371* 7336 EASY DAY AMRITPURI","2021-05-29 08:16:47.000000",Active,NCR-OF-MT,NCR,Gurgaon,NULL,NULL
"G1717* AMPM STORE SEC-31","2021-05-29 13:15:02.932805",Active,Gurgaon-GT,NCR,Gurgaon,28.453,77.05
"G1719* Day Night 24/7- 54","2021-06-02 06:23:52.000000",Active,Gurgaon-GT,NCR,Gurgaon,28.433,77.105
"G1726* URBAN MERCADO (Vipul World)","2021-06-02 10:43:25.425268",Active,Gurgaon-GT,NCR,Gurgaon,28.411,77.036
"G1733* HAPPY MART","2021-06-02 11:11:02.679993",Active,Gurgaon-GT,NCR,Gurgaon,28.389,76.95
"G1734* VISHAKHA SUPER MART","2021-06-02 11:16:03.423693",Active,Gurgaon-GT,NCR,Gurgaon,28.389,76.954
"G1735* HOME DAILY NEEDS","2021-06-02 11:23:23.062695",Active,Gurgaon-GT,NCR,Gurgaon,28.389,76.954
"D2388* Kishan store","2021-06-02 17:56:41.952596",Active,Delhi-GT,NCR,Delhi,28.522,77.216
"D2390* Harsh provisn stor","2021-06-02 18:00:51.000000",Active,Delhi-GT,NCR,Delhi,28.562,77.197
"D2391* Mittal store (air force","2021-06-02 18:03:48.000000",Active,Delhi-GT,NCR,Delhi,28.499,77.144
"G1742* Shri Shyam General Store-67","2021-06-03 10:20:23.915755",Active,Gurgaon-GT,NCR,Gurgaon,28.389,77.056
"D2406* 7259 Easy Day delhi kalka ji-1","2021-06-04 10:02:16.000000",Active,NCR-OF-MT,NCR,Gurgaon,NULL,NULL
"D2407* 3892 Easy Day new delhi kalka jii 2","2021-06-04 10:07:13.000000",Active,NCR-OF-MT,NCR,Gurgaon,NULL,NULL
"D2408* 3899  Easy day RAFI COMPLEX","2021-06-04 10:12:40.000000",Active,NCR-OF-MT,NCR,Gurgaon,NULL,NULL
"D2409* 7348 EASY DAY NEW KALKA JI 4","2021-06-04 10:17:19.000000",Active,NCR-OF-MT,NCR,Gurgaon,NULL,NULL
"D2410* 7367 Easy Day KALKA JI 2 DDA FLAT","2021-06-04 10:20:26.000000",Active,NCR-OF-MT,NCR,Gurgaon,NULL,NULL
"D2411* 3796 EASY DAY  SECTOR 12 DWARKA","2021-06-04 10:41:00.000000",Active,NCR-OF-MT,NCR,Gurgaon,NULL,NULL
"D2412* 3790 EASY DAY MATIALA RD","2021-06-04 10:45:34.000000",Active,NCR-OF-MT,NCR,Gurgaon,NULL,NULL
"D2413* 7255 EASYDAY KAKROLA HOUSE DWARKA","2021-06-04 10:51:45.000000",Active,NCR-OF-MT,NCR,Gurgaon,NULL,NULL
"D2414* 7387 EASY DAY KAPASHERA VILLAGE","2021-06-04 11:01:11.000000",Active,NCR-OF-MT,NCR,Gurgaon,NULL,NULL
"D2415* 3808 EASY DAY PALAM COLONY","2021-06-04 11:08:15.000000",Active,NCR-OF-MT,NCR,Gurgaon,NULL,NULL
"D2416* 7394 EASYDAY BIJWASAN","2021-06-04 11:14:04.000000",Active,NCR-OF-MT,NCR,Gurgaon,NULL,NULL
"D2417* 3479 EASYDAY DWARKA SECTOR 7","2021-06-04 11:18:09.000000",Active,NCR-OF-MT,NCR,Gurgaon,NULL,NULL
"D2418* 3844 EASYDAY AMBERHAI","2021-06-04 11:21:16.000000",Active,NCR-OF-MT,NCR,Gurgaon,NULL,NULL
"D2419* 3849 EASYDAY DWARKA SECTOR 17","2021-06-04 11:26:20.000000",Active,NCR-OF-MT,NCR,Gurgaon,NULL,NULL
"D2425* City store(Saheen bagh) ","2021-06-05 08:26:29.736308",Active,Delhi-GT,NCR,Delhi,28.55,77.301
"G1760* Sangam bazar- 56","2021-06-05 10:14:42.000000",Active,Gurgaon-GT,NCR,Gurgaon,28.421,77.091
"G1762* Sai dairy 49","2021-06-05 10:37:31.000000",Active,Gurgaon-GT,NCR,Gurgaon,28.41,77.05
"G1763*  Tulsi gen store","2021-06-05 10:39:53.007259",Active,Gurgaon-GT,NCR,Gurgaon,28.406,77.043
"G1766* LAXMI STORE","2021-06-05 11:02:45.000000",Active,Gurgaon-GT,NCR,Gurgaon,28.47012,77.01465
"D2426* Richi rich Bazaar","2021-06-05 14:28:48.000000",Active,Delhi-GT,NCR,Delhi,28.637,77.077
"D2430* YR Hypermarket(M block)","2021-06-06 01:57:47.000000",Active,Delhi-GT,NCR,Delhi,28.534,77.244
"G1770* Shri bala ji general store -57","2021-06-06 12:30:57.000000",Active,Gurgaon-GT,NCR,Gurgaon,28.423,77.075
"D2445* BB HYPERMARKET","2021-06-09 00:48:42.000000",Active,Delhi-GT,NCR,Delhi,28.613,77.096
"G1786* Lohiya mart-dlf 1","2021-06-09 10:30:07.000000",Active,Gurgaon-GT,NCR,Gurgaon,28.472,77.102
"G1797* Malta super store","2021-06-12 06:54:17.751465",Active,Gurgaon-GT,NCR,Gurgaon,28.424928,77.058852
"D2461* KERLA STORE","2021-06-13 17:14:40.000000",Active,Delhi-GT,NCR,Delhi,28.585,77.07
"D2464* EASY RETAIL SOLUTIONS","2021-06-13 17:25:06.000000",Active,Delhi-GT,NCR,Delhi,28.573,77.076
"D2468* Yaswant place service station","2021-06-14 11:24:47.764587",Active,Delhi-GT,NCR,Delhi,28.584,77.191
"D2473* Hello conferencer","2021-06-14 11:38:37.411464",Active,Delhi-GT,NCR,Delhi,28.58,77.171
"D2476* Mother dairy 122 ","2021-06-14 11:47:46.592910",Active,Delhi-GT,NCR,Delhi,28.565,77.192
"D2497* Nagar dairy","2021-06-15 09:21:34.000000",Active,Delhi-GT,NCR,Delhi,28.627,77.092
"D2504* Rm meera Bagh hayper market","2021-06-15 09:37:09.988656",Active,Delhi-GT,NCR,Delhi,28.661,77.088
"D2505* Prince  store","2021-06-15 09:39:56.000000",Active,Delhi-GT,NCR,Delhi,28.668,77.083
"D2506* Gopal store","2021-06-15 09:41:27.612413",Active,Delhi-GT,NCR,Delhi,28.668,77.083
"D2508* Guptaji namkin","2021-06-15 09:46:21.786492",Active,Delhi-GT,NCR,Delhi,28.6389153,77.0750144
"G1804* Sunrise general store-m3m","2021-06-15 12:13:14.100201",Active,Gurgaon-GT,NCR,Gurgaon,28.38919236,77.06030236
"D2512* Nine eleven department","2021-06-15 16:13:43.038370",Active,Delhi-GT,NCR,Delhi,28.563,77.194
"G1810* Pooja gen store 49","2021-06-17 12:08:21.557845",Active,Gurgaon-GT,NCR,Gurgaon,28.412,77.048
"D2534* Arora Store","2021-06-18 11:42:59.000000",Active,Delhi-GT,NCR,Delhi,28.63739,77.10128
"G1824* Fresh Mart (vikat store)","2021-06-23 11:06:49.092322",Active,Gurgaon-GT,NCR,Gurgaon,28.51297,77.0363
"G1825* Bvm super mart dlf 2","2021-06-23 12:05:38.000000",Active,Gurgaon-GT,NCR,Gurgaon,28.482,77.092
"D2547* Buy buy retailing","2021-06-23 12:09:05.036181",Active,Delhi-GT,NCR,Delhi,28.494,77.165
"D2548* Nisar","2021-06-23 12:18:38.726075",Active,Delhi-GT,NCR,Delhi,28.522,77.217
"H5003* M/S kay kay foods(Ghaziabad)","2021-06-24 01:31:16.000000",Active,Noida-GT,NCR,Noida,28.641,77.342
"H5005* Kings supermart(Indrapuram)","2021-06-24 01:50:49.000000",Active,Noida-GT,NCR,Noida,28.644,77.342
"D2550* 4229EASYDAY RAILWAY ROAD","2021-06-24 10:46:03.000000",Active,NCR-OF-MT,NCR,Gurgaon,NULL,NULL
"H5012* Yashoda dairy(Indrapuram) ","2021-06-25 04:38:50.974489",Active,Noida-GT,NCR,Noida,28.641,77.343
"D2559* Family store","2021-06-25 07:41:41.077926",Active,Delhi-GT,NCR,Delhi,28.595,77.084
"D2561* Rajmandir Janakpuri","2021-06-25 07:45:31.000000",Active,Delhi-GT,NCR,Delhi,28.62714,77.09212
"D2569* Ab fobs Green chick chop","2021-06-25 08:56:52.000000",Active,Delhi-GT,NCR,Delhi,28.67034,77.0841
"D2571* Motherdairy 15031(Kalkaji) ","2021-06-25 10:11:20.473685",Active,Delhi-GT,NCR,Delhi,28.531,77.253
"H5018* Fairway(Indrapuram) ","2021-06-25 11:10:04.866333",Active,Noida-GT,NCR,Noida,28.647,77.341
"G1837*  Ratan dairy","2021-06-25 11:15:48.000000",Active,Gurgaon-GT,NCR,Gurgaon,28.435,77.06
"D2574* Rasoi ghar ","2021-06-25 11:42:12.334649",Active,Delhi-GT,NCR,Delhi,28.613287,77.09552
"D2575* Yash pal & sons ","2021-06-25 11:44:47.406149",Active,Delhi-GT,NCR,Delhi,28.617,77.083
"D2583* Pastry point","2021-06-25 12:25:52.000000",Active,Delhi-GT,NCR,Delhi,28.6342599,77.0673113
"D2592* New Punjab","2021-06-27 11:50:11.000000",Active,Delhi-GT,NCR,Delhi,28.565,77.054
"D2595* RMUN HYPER MARKET","2021-06-28 11:42:46.469131",Active,Delhi-GT,NCR,Delhi,28.624,77.064
"D2596* DMS SEC 9 DWARKA","2021-06-28 11:44:52.000000",Active,Delhi-GT,NCR,Delhi,28.581,77.067
"D2599* Aapka bazar sec 12","2021-06-28 11:53:30.694280",Active,Delhi-GT,NCR,Delhi,28.597,77.042
"D2603* Max bazar Gujranwala town","2021-06-29 12:46:49.240836",Active,Delhi-GT,NCR,Delhi,28.702,77.183
"D2607* Rmvp hyper Market","2021-06-29 13:27:00.000000",Active,Delhi-GT,NCR,Delhi,28.629,77.069
"G1841* Saini super mart","2021-07-02 12:07:49.473070",Active,Gurgaon-GT,NCR,Gurgaon,28.435,77.06
"G1842* Ramdas general store-60","2021-07-02 13:29:51.092452",Active,Gurgaon-GT,NCR,Gurgaon,28.40101,77.09811
"D2612* Mother dairy 140","2021-07-03 07:20:51.000000",Active,Delhi-GT,NCR,Delhi,28.527,77.162
"D2613* Meenu agencies pvt. Ltd","2021-07-03 10:17:47.169863",Active,Delhi-GT,NCR,Delhi,28.561,77.155
"D2615* Shree Agrasen Enterprises","2021-07-03 12:46:04.000000",Active,Delhi-GT,NCR,Delhi,28.63635,77.0906
"D2616* Rajmandir mahaveer enclave","2021-07-03 12:48:20.000000",Active,Delhi-GT,NCR,Delhi,28.562,77.051
"G1845* Haryana vita dairy 49","2021-07-06 09:46:30.000000",Active,Gurgaon-GT,NCR,Gurgaon,28.409,77.046
"D2621* Ankit store","2021-07-06 09:47:47.207463",Active,Delhi-GT,NCR,Delhi,28.532,77.2
"D2627* Kirana bazar vikashpuri","2021-07-08 09:56:22.848776",Active,Delhi-GT,NCR,Delhi,28.6388467,77.0777167
"D2628* Wyn venture Pvt Ltd Dwarka","2021-07-08 09:57:59.000000",Active,Delhi-GT,NCR,Delhi,28.58,77.06
"D2629* Rajmandir super market pvr.ltd.","2021-07-08 14:22:34.000000",Active,Delhi-GT,NCR,Delhi,28.652,77.13
"G1850* Honey money tops -sector -63","2021-07-17 11:14:56.000000",Active,Gurgaon-GT,NCR,Gurgaon,28.401,77.092
"G1851* Honey money tops sector -23","2021-07-17 11:23:54.000000",Active,Gurgaon-GT,NCR,Gurgaon,28.51,77.049
"G1852* Honey money sector 15","2021-07-17 11:33:30.000000",Active,Gurgaon-GT,NCR,Gurgaon,28.45737,77.04505
"G1853* Honey money NFC1","2021-07-17 11:40:38.000000",Active,Delhi-GT,NCR,Delhi,28.571,77.267
"D2641* Honey money tops NFC2","2021-07-17 11:46:01.000000",Active,Delhi-GT,NCR,Delhi,28.561,77.272
"G1854* Honey money tops Chattarpur","2021-07-17 11:48:56.000000",Active,Delhi-GT,NCR,Delhi,28.488,77.187
"N4009* Bigbasket Noida DC","2021-07-17 14:02:13.000000",Active,NCR-ON-MT,NCR,Noida,28.622702399999998,77.39438940000001
"D2642* Bigbasket Okhla","2021-07-17 14:07:46.000000",Active,NCR-ON-MT,NCR,Delhi,NULL,NULL
"G1855* Bigbasket BEGAMPUR  KHATOLA","2021-07-19 07:51:17.000000",Active,NCR-ON-MT,NCR,Gurgaon,NULL,NULL
"G1856* Bigbasket Mohan cooperative area","2021-07-19 07:53:59.000000",Active,NCR-ON-MT,NCR,Delhi,NULL,NULL
"G1857* Bigbasket wazirabad sector 52","2021-07-19 07:56:20.000000",Active,NCR-ON-MT,NCR,Gurgaon,NULL,NULL
"D2644* Bigbasket Gazipur","2021-07-19 08:02:47.000000",Active,NCR-ON-MT,NCR,Delhi,NULL,NULL
"D2645* Bigbasket Lawrence road","2021-07-19 08:05:59.000000",Active,NCR-ON-MT,NCR,Delhi,NULL,NULL
"G1859* Bigbasket Chattarpur","2021-07-19 08:08:25.000000",Active,NCR-ON-MT,NCR,Delhi,NULL,NULL
"G1860* Bigbasket Atul kataria chowk","2021-07-19 08:11:49.000000",Active,NCR-ON-MT,NCR,Gurgaon,NULL,NULL
"F3035* Bigbasket Faridabad","2021-07-19 08:14:31.000000",Active,NCR-ON-MT,NCR,Faridabad,NULL,NULL
"G1862* C'est La Vie World Food Cafe","2021-07-19 13:14:18.000000",Active,Gurgaon-GT,NCR,Gurgaon,28.391,77.072
"D2647* Modern bazaar Vasant Vihar","2021-07-19 15:58:06.000000",Active,NCR-OF-MT,NCR,Delhi,28.55906,77.16144
"G1863* Modernbazaar saket","2021-07-19 16:13:15.000000",Active,NCR-OF-MT,NCR,Delhi,28.52896,77.21703
"D2648* Modernbazar New Friends Colony","2021-07-19 16:18:54.000000",Active,NCR-OF-MT,NCR,Delhi,28.5623,77.26623
"D2650* Safal 580","2021-07-21 07:06:14.000000",Active,Delhi-GT,NCR,Delhi,28.692,77.178
"G1865* MODERN BAZAAR EAST OF KAILASH","2021-07-21 15:18:29.000000",Active,NCR-OF-MT,NCR,Delhi,28.55414,77.24168
"G1866* MODERN BAZAAR PUNJABI BAGH","2021-07-21 15:22:00.000000",Active,NCR-OF-MT,NCR,Delhi,28.66628,77.12528
"G1867* MODERNBAZAR DLF-PHASE 1","2021-07-21 15:30:51.000000",Active,NCR-OF-MT,NCR,Gurgaon,28.45028,77.04493
"G1868* MODERN BAZAR DLF CYBER HUB","2021-07-21 15:34:47.000000",Active,NCR-OF-MT,NCR,Gurgaon,28.49479,77.087
"G1869* MODERN BAZAAR DWARKA","2021-07-21 15:38:01.000000",Active,NCR-OF-MT,NCR,Delhi,28.5961,77.03863
"G1870* MODERN BAZAAR KAILASH COLONY","2021-07-21 15:42:34.000000",Active,NCR-OF-MT,NCR,Delhi,28.5543,77.23994
"G1871* MODERN BAZAAR SECTOR 47 GURGAON SETOR 47 SS TOWER","2021-07-21 15:46:14.000000",Active,NCR-OF-MT,NCR,Gurgaon,28.4267,77.05468
"G1872* MODER BAZAAR SECTOR 65 GURGAON WORLDMARK","2021-07-21 15:49:45.000000",Active,NCR-OF-MT,NCR,Gurgaon,28.43474,77.04493
"G1873* MODERN BAZAAR NOIDA SECTOR 16B","2021-07-21 15:53:05.000000",Active,NCR-OF-MT,NCR,Noida,28.57457,77.31351
"G1874* MODERN BAZAAR DEFENCE COLONY","2021-07-21 15:55:57.000000",Active,NCR-OF-MT,NCR,Delhi,28.5741,77.23494
"G1875* MODERN BAZAAR GREEN PARK","2021-07-21 15:59:31.000000",Active,NCR-OF-MT,NCR,Delhi,28.55565,77.20578
"G1876* MORE VIPUL PARK SECTOR 48 GURGAON","2021-07-22 05:24:36.000000",Active,NCR-OF-MT,NCR,Gurgaon,28.42232,77.03567
"G1877* MORE MEGA MART ROHINI","2021-07-22 05:27:33.000000",Active,NCR-OF-MT,NCR,Delhi,28.71699,77.07923
"G1879* MORE MEGA MART NAJAFGARH","2021-07-22 05:34:44.204930",Active,NCR-OF-MT,NCR,Delhi,28.61098,76.98361
"G1880* MORE MEGA Mart sector 37 gurgaon","2021-07-22 05:37:49.000000",Active,NCR-OF-MT,NCR,Gurgaon,28.51663,76.94179
"G1881* more mega mat gaur mall rdc gaziabad","2021-07-22 05:40:26.000000",Active,NCR-OF-MT,NCR,Ghaziabad,28.67383,77.43817
"G1882* more mega mart beta 2 greater noida","2021-07-22 05:42:46.000000",Active,NCR-OF-MT,NCR,Noida,28.48928,77.51194
"G1890* Aaru general store","2021-07-23 16:00:46.000000",Active,Gurgaon-GT,NCR,Gurgaon,28.512,77.041
"D2655* Pradeep Store","2021-07-24 12:34:28.734647",Active,Delhi-GT,NCR,Delhi,28.636,77.181
"D2666* Rattan dairy","2021-07-25 11:51:25.137123",Active,Delhi-GT,NCR,Delhi,28.646,77.174
"D2670* Paul Trial","2021-07-26 10:24:32.000000",Active,NCR-UB,NCR,Gurgaon,NULL,NULL
"H5022* Shiv sai amul store(Indrapuram) ","2021-07-26 10:34:32.846144",Active,Noida-GT,NCR,Noida,28.636,77.363
"H5024* A. B super marche(Indrapuram) ","2021-07-26 10:57:27.218456",Active,Noida-GT,NCR,Noida,28.637,77.366
"D2677* Mother dairy 223(bapudham","2021-07-30 05:24:56.799241",Active,Delhi-GT,NCR,Delhi,28.597,77.177
"D2679* GYM khana service station","2021-07-30 05:30:57.432245",Active,Delhi-GT,NCR,Delhi,28.596,77.205
"D2684* RMJH HYPERMARKET","2021-07-31 04:37:21.000000",Active,Delhi-GT,NCR,Delhi,28.67,77.107
"D2690* Brijwasi store","2021-08-01 16:12:46.212807",Active,Delhi-GT,NCR,Delhi,28.663,77.086
"G1896* THE CHIC","2021-08-02 04:02:46.951488",Active,Gurgaon-GT,NCR,Gurgaon,28.47127,77.01877
"D2697* Bajpayee store","2021-08-03 04:45:20.752141",Active,Delhi-GT,NCR,Delhi,28.63,77.139
"G1901* Bansal super store ","2021-08-03 07:21:51.202711",Active,Gurgaon-GT,NCR,Gurgaon,28.46006,77.0842
"G1903* SPAR GURGAON","2021-08-03 11:16:15.000000",Active,NCR-OF-MT,NCR,Gurgaon,28.47883,77.0805
"D2701* RM KALKAJI HYPERMARKET","2021-08-03 12:10:51.000000",Active,Delhi-GT,NCR,Delhi,28.537,77.258
"D2702* Ananiya dairy","2021-08-03 12:13:25.409446",Active,Delhi-GT,NCR,Delhi,28.508,77.199
"D2704* SPAR NAJAFGARH","2021-08-04 07:11:29.000000",Active,NCR-OF-MT,NCR,Delhi,28.64255,77.10193
"D2705* SPAR DWARKA","2021-08-04 07:22:38.000000",Active,NCR-OF-MT,NCR,Delhi,28.6016,77.02738
"D2706* Sahni enterprises(Sardar meat shop) ","2021-08-04 07:31:27.866944",Active,Delhi-GT,NCR,Delhi,28.635,77.291
"N4010* SPAR GHAZIABAD","2021-08-04 08:05:45.000000",Active,NCR-OF-MT,NCR,Ghaziabad,28.67928,77.3797
"G1910* Haryana Vita dairy 46 ","2021-08-04 10:36:02.846093",Active,Gurgaon-GT,NCR,Gurgaon,28.441,77.057
"D2713* Budget bazar Janakpuri","2021-08-04 11:47:37.639281",Active,Delhi-GT,NCR,Delhi,28.624,77.08
"G1917* DECENT NEEDS","2021-08-05 05:22:27.801358",Active,Gurgaon-GT,NCR,Gurgaon,28.394,76.975
"G1918* SUVIDHA FRESH FRUIT AND VEGETABLES","2021-08-05 05:33:22.585325",Active,Gurgaon-GT,NCR,Gurgaon,28.394,76.975
"D2716* Sureshi supermarket","2021-08-05 07:05:38.291114",Active,Delhi-GT,NCR,Delhi,28.66,77.155
"D2735* S M Corporation","2021-08-07 07:50:22.153964",Active,Delhi-GT,NCR,Delhi,28.64,77.184
"G1936*  Tulip super mart","2021-08-07 08:24:08.000000",Active,Gurgaon-GT,NCR,Gurgaon,28.395,77.032
"G1938* SHIVAM TRADERS","2021-08-07 08:47:59.792582",Active,Gurgaon-GT,NCR,Gurgaon,28.459,77.044
"G1940* Brick N Bean cafe kitchen","2021-08-07 11:29:19.000000",Active,Gurgaon-GT,NCR,Gurgaon,28.414,77.066
"D2736* GDEES SUPER MART","2021-08-07 12:05:03.108938",Active,Delhi-GT,NCR,Delhi,28.505,77.199
"D2739* Super store","2021-08-07 13:18:58.480159",Active,Delhi-GT,NCR,Delhi,28.661,77.087
"D2742* Radhe store","2021-08-07 13:29:07.445650",Active,Delhi-GT,NCR,Delhi,28.642,77.117
"D2746* Standard baker's & confectioners","2021-08-07 13:46:26.076060",Active,Delhi-GT,NCR,Delhi,28.642,77.112
"G1947* JARNALI ENTERPRISES CENTRAL ARCADE","2021-08-10 12:07:56.000000",Active,Gurgaon-GT,NCR,Gurgaon,28.481,77.086
"D2762* Aamayra retail concepts Pvt Ltd","2021-08-11 06:06:15.171141",Active,Delhi-GT,NCR,Delhi,28.707,77.213
"G1951* Brick n Bean Cafe-53","2021-08-11 09:34:36.000000",Active,Gurgaon-GT,NCR,Gurgaon,28.448,77.101
"G1955* Jai shree shyam","2021-08-12 07:10:42.909484",Active,Gurgaon-GT,NCR,Gurgaon,28.511,77.048
"D2767* RM super bazaar pvt ltd","2021-08-12 08:02:48.693185",Active,Delhi-GT,NCR,Delhi,28.696,77.17
"D2772*  Swaroop Round The Clock Convenience Store","2021-08-13 06:33:57.017277",Active,Delhi-GT,NCR,Delhi,28.691,77.201
"D2773* Sondhi general store","2021-08-13 09:53:54.952549",Active,Delhi-GT,NCR,Delhi,28.707,77.191
"H5038* Stop N shop supermarket (Gaur city 2) ","2021-08-13 12:53:37.160843",Active,Noida-GT,NCR,Noida,28.621,77.422
"D2774* Singhal department store","2021-08-13 13:27:41.872611",Active,Delhi-GT,NCR,Delhi,28.438,77.176
"G1962* j.p Fruits","2021-08-14 11:00:22.536599",Active,Gurgaon-GT,NCR,Gurgaon,28.473,77.049
"G1963* Shree  shyam supe mart","2021-08-14 12:24:09.000000",Active,Gurgaon-GT,NCR,Gurgaon,28.385,77.016
"D2783* Rajmandir jwalaheri","2021-08-16 12:57:20.445136",Active,Delhi-GT,NCR,Delhi,28.674,77.103
"H5043* Grocery bazaar(Gaur city1) ","2021-08-17 07:51:07.628830",Active,Noida-GT,NCR,Noida,28.612,77.424
"G1968* Sunrise malibu town","2021-08-18 05:56:19.000000",Active,Gurgaon-GT,NCR,Gurgaon,28.422,77.052
"D2806* New morning (galf link","2021-08-18 11:38:05.717493",Active,Delhi-GT,NCR,Delhi,28.594,77.232
"D2811* Gopi store","2021-08-18 11:57:36.682072",Active,Delhi-GT,NCR,Delhi,28.48,77.157
"D2822* ME Store","2021-08-20 09:58:26.405926",Active,Delhi-GT,NCR,Delhi,28.731,77.132
"D2823* Lovely store","2021-08-20 10:01:56.811754",Active,Delhi-GT,NCR,Delhi,28.721,77.137
"D2827* Parcham bazar","2021-08-23 04:04:32.417818",Active,Delhi-GT,NCR,Delhi,28.67,77.087
"D2829* Vijay Store","2021-08-23 08:21:34.682173",Active,Delhi-GT,NCR,Delhi,28.705,77.166
"G1972* MAX REACH STORES PVT LTD Ridhi Sidhi_RDSD_Instamart","2021-08-24 12:45:40.000000",Active,NCR-ON-MT,NCR,Jaipur,NULL,NULL
"D2849* Mirza super market","2021-08-30 06:53:56.221824",Active,Delhi-GT,NCR,Delhi,28.566,77.286
"N4021* Gopal ji stores(Noida sector-26)","2021-09-02 11:29:38.000000",Active,Noida-GT,NCR,Noida,28.577,77.335
"G1983* FLIPKART REWARI","2021-09-06 08:55:00.000000",Active,NCR-ON-MT,NCR,Rewari,NULL,NULL
"G1984* FLIPKART FARIDABAD","2021-09-06 09:31:41.000000",Active,NCR-ON-MT,NCR,Faridabad,NULL,NULL
"H5059* Nature Egg","2021-04-30 18:30:00.000000",Active,NCR-UB,NCR,Gurgaon,NULL,NULL
"G1985* Individual(saif)","2021-04-30 18:30:00.000000",Active,NCR-UB,NCR,Gurgaon,NULL,NULL
"G1986* Kalu Jail","2021-04-30 18:30:00.000000",Active,NCR-UB,NCR,Gurgaon,NULL,NULL
"G1988* New Vandana","2021-04-30 18:30:00.000000",Active,NCR-UB,NCR,Gurgaon,NULL,NULL
"D2864* Surender Singh Govindpuri","2021-04-30 18:30:00.000000",Active,NCR-UB,NCR,Gurgaon,NULL,NULL
"G1989* Ashirwad Mega Mart","2021-04-30 18:30:00.000000",Active,NCR-UB,NCR,Gurgaon,NULL,NULL
"D2865* Kuldeep Chacha ji Palam","2021-04-30 18:30:00.000000",Active,NCR-UB,NCR,Gurgaon,NULL,NULL
"G1990* Rajesh Palam Vihar","2021-04-30 18:30:00.000000",Active,NCR-UB,NCR,Gurgaon,NULL,NULL
"G1991* Dinesh Driver","2021-04-30 18:30:00.000000",Active,NCR-UB,NCR,Gurgaon,NULL,NULL
"D2866* SHAREEKH STORE SHAHEEN BHAG","2021-04-30 18:30:00.000000",Active,NCR-UB,NCR,Gurgaon,NULL,NULL
"D2867* EK MINAR STORE ROAD NO 7","2021-04-30 18:30:00.000000",Active,NCR-UB,NCR,Gurgaon,NULL,NULL
"D2868* FAHIM STORE ROAD NO 7","2021-04-30 18:30:00.000000",Active,NCR-UB,NCR,Gurgaon,NULL,NULL
"D2869* SUPER TASTY BAKERY ROAD NO 7","2021-04-30 18:30:00.000000",Active,NCR-UB,NCR,Gurgaon,NULL,NULL
"D2870* BARKAT STORE SHAHEEN BHAG","2021-04-30 18:30:00.000000",Active,NCR-UB,NCR,Gurgaon,NULL,NULL
"D2871* CAFE ROLCHA TRIKONA PARK","2021-04-30 18:30:00.000000",Active,NCR-UB,NCR,Gurgaon,NULL,NULL
"D2872* WAQEEL STORE JASOLA BIHAR","2021-04-30 18:30:00.000000",Active,NCR-UB,NCR,Gurgaon,NULL,NULL
"D2873* INDOUS STORE ROAD NO 5","2021-04-30 18:30:00.000000",Active,NCR-UB,NCR,Gurgaon,NULL,NULL
"D2874* INDIVIDUAL(Atif)","2021-04-30 18:30:00.000000",Active,NCR-UB,NCR,Gurgaon,NULL,NULL
"D2875* AFZIYA STORE D BLOCK","2021-04-30 18:30:00.000000",Active,NCR-UB,NCR,Gurgaon,NULL,NULL
"D2876* SOHAIL STORE OKHLA HEAD","2021-04-30 18:30:00.000000",Active,NCR-UB,NCR,Gurgaon,NULL,NULL
"D2877* FAISAL STORE OKHLA POLICE STATION","2021-04-30 18:30:00.000000",Active,NCR-UB,NCR,Gurgaon,NULL,NULL
"D2878* SUSHMA STORE NEB SARI","2021-04-30 18:30:00.000000",Active,NCR-UB,NCR,Gurgaon,NULL,NULL
"D2879* FIROZ STORE NEB SARAI","2021-04-30 18:30:00.000000",Active,NCR-UB,NCR,Gurgaon,NULL,NULL
"D2880* ANAS STORE ROAD NO 6","2021-04-30 18:30:00.000000",Active,NCR-UB,NCR,Gurgaon,NULL,NULL
"D2881* SHAAN MASALA 40 FT ROAD KALINDIKUNJ","2021-04-30 18:30:00.000000",Active,NCR-UB,NCR,Gurgaon,NULL,NULL
"D2882* AL ZAHEER STORE","2021-04-30 18:30:00.000000",Active,NCR-UB,NCR,Gurgaon,NULL,NULL
"D2883* ADIL STORE NOOR MASJID","2021-04-30 18:30:00.000000",Active,NCR-UB,NCR,Gurgaon,NULL,NULL
"D2884* SALMAN STORE ROAD NO 7","2021-04-30 18:30:00.000000",Active,NCR-UB,NCR,Gurgaon,NULL,NULL
"D2885* ANISH STORE 40 FT ROAD","2021-04-30 18:30:00.000000",Active,NCR-UB,NCR,Gurgaon,NULL,NULL
"D2886* ZAIKA FOOD 40 FT ROAD","2021-04-30 18:30:00.000000",Active,NCR-UB,NCR,Gurgaon,NULL,NULL
"D2887* UNCLE STORE UTTAM NAGAR","2021-04-30 18:30:00.000000",Active,NCR-UB,NCR,Gurgaon,NULL,NULL
"D2888* INDO US STORE ROAD NO 5","2021-04-30 18:30:00.000000",Active,NCR-UB,NCR,Gurgaon,NULL,NULL
"D2889* NUMBER 9 KALINDIKUNJ BUS STAND","2021-04-30 18:30:00.000000",Active,NCR-UB,NCR,Gurgaon,NULL,NULL
"D2890* PALLAVI STORE NEB SARAI","2021-04-30 18:30:00.000000",Active,NCR-UB,NCR,Gurgaon,NULL,NULL
"D2891* PRAVEEN EGG MAYUR VIHAR","2021-04-30 18:30:00.000000",Active,NCR-UB,NCR,Delhi,NULL,NULL
"D2892* ANUPAM STORE MAYUR VIHAR","2021-04-30 18:30:00.000000",Active,NCR-UB,NCR,Gurgaon,NULL,NULL
"D2893* CHICKEN HOTEL 40 FT ROAD","2021-04-30 18:30:00.000000",Active,NCR-UB,NCR,Gurgaon,NULL,NULL
"D2894* STORE NEB SARAI","2021-04-30 18:30:00.000000",Active,NCR-UB,NCR,Gurgaon,NULL,NULL
"D2895* STORE KIRANA NEB SARAI","2021-04-30 18:30:00.000000",Active,NCR-UB,NCR,Gurgaon,NULL,NULL
"D2896* APNA BAKERY NEB SARAI","2021-04-30 18:30:00.000000",Active,NCR-UB,NCR,Gurgaon,NULL,NULL
"D2897* SAIF BHAI BATLA HOUSE","2021-04-30 18:30:00.000000",Active,NCR-UB,NCR,Gurgaon,NULL,NULL
"D2898* SUNIL STORE SANGAM VIHAR","2021-04-30 18:30:00.000000",Active,NCR-UB,NCR,Gurgaon,NULL,NULL
"D2899* MOHAMMAD BHAI SANGAM VIHAR","2021-04-30 18:30:00.000000",Active,NCR-UB,NCR,Gurgaon,NULL,NULL
"D2900* MONU BHAI PALAM","2021-04-30 18:30:00.000000",Active,NCR-UB,NCR,Gurgaon,NULL,NULL
"D2901* PRAVEEN BHAI MAYUR VIHAR","2021-04-30 18:30:00.000000",Active,NCR-UB,NCR,Gurgaon,NULL,NULL
"G1994* SPENCER SEC-56 GURGAON","2021-09-12 08:15:02.000000",Active,NCR-OF-MT,NCR,Gurgaon,28.45418,77.04105
"G1995* FLIPKART PATHREARI SUGAL LOGISTIC PARK","2021-09-12 08:53:04.000000",Active,NCR-ON-MT,NCR,Rewari,NULL,NULL
"D2910* Shubh mandir super market","2021-09-12 12:05:27.969439",Active,Delhi-GT,NCR,Delhi,28.718,77.172
"G2000* Mohar Super Mart","2021-09-13 12:04:12.415328",Active,Gurgaon-GT,NCR,Gurgaon,28.455,76.991
"G2001* RELIENCE RETAIL LIMITED(MILK BASKET)","2021-09-14 12:07:56.000000",Active,NCR-ON-MT,NCR,Gurgaon,NULL,NULL
"N4040* Shri ram store(27Noida) ","2021-09-18 05:05:00.936204",Active,Noida-GT,NCR,Noida,28.574,77.327
"D2914* Yess retail LLP","2021-09-22 12:12:21.731106",Active,Delhi-GT,NCR,Delhi,28.565,77.242
"N4049* JAY CEE GRAND(Sec-50, Noida) ","2021-09-22 12:17:34.432891",Active,Noida-GT,NCR,Noida,28.5776267,77.373858
"N4050* THE ROYAL EMPIRE SUPER STORE","2021-09-23 05:55:35.412930",Active,Noida-GT,NCR,Noida,28.56998,77.36198
"D2916* DMS-1368","2021-09-23 08:41:28.713001",Active,Delhi-GT,NCR,Delhi,28.705,77.199
"N4054* YESS RETAIL LLP(Noida)","2021-09-23 13:15:11.000000",Active,Noida-GT,NCR,Noida,28.539,77.366
"N4056* Garhwal paneer bhandar","2021-09-24 07:59:45.071954",Active,Noida-GT,NCR,Noida,28.5014,77.37745
"D2918* YESS RETAIL LLP(preet vihar) ","2021-09-25 12:00:55.494527",Active,Delhi-GT,NCR,Delhi,28.641,77.294
"N4071* Mother dairy (46815) Noida","2021-09-27 08:39:14.891955",Active,Noida-GT,NCR,Noida,28.574660700000003,77.3802566
"D2933* Suresh saini","2021-10-03 06:25:51.000000",Active,Delhi-GT,NCR,Delhi,28.538,77.238
"N4091* Gupta store (53 Noida) ","2021-10-03 06:45:49.386202",Active,Noida-GT,NCR,Noida,28.59043,77.36392
"D2935* Optima mart","2021-10-03 11:33:53.845169",Active,Delhi-GT,NCR,Delhi,28.554,77.244
"G2013* Big basket Bamnoli village Dwarka","2021-10-06 12:18:20.642176",Active,NCR-ON-MT,NCR,Delhi,NULL,NULL
"G2014* FLIPKART PANCHKULA HARYANA","2021-10-07 07:57:10.000000",Active,NCR-ON-MT,NCR,Gurgaon,NULL,NULL
"G2015* FLIPKART MOHALI","2021-10-07 08:00:17.000000",Active,NCR-ON-MT,NCR,Gurgaon,NULL,NULL
"D2965* Max bazaar kirti nagar","2021-10-15 10:17:51.141964",Active,Delhi-GT,NCR,Delhi,28.65068,77.14171
"G2020* Yadav ji  grocery fruits &vevetables","2021-10-16 03:37:36.739449",Active,Gurgaon-GT,NCR,Gurgaon,28.375,77.043
"G2022* Hawkers town","2021-10-16 05:13:53.895722",Active,Gurgaon-GT,NCR,Gurgaon,28.463,77.087
"G2025* Bombay fisheries","2021-10-18 05:50:17.610226",Active,Gurgaon-GT,NCR,Gurgaon,28.42206,77.09089
"D2974* Yes Eggs(Praveen)","2021-04-30 18:30:00.000000",Active,NCR-UB,NCR,Gurgaon,NULL,NULL
"F3040* Max Reach Stores Pvt. Ltd. Ferozepur Road_973250_Instamart","2021-10-20 12:40:20.000000",Active,NCR-ON-MT,NCR,Ludhiana,NULL,NULL
"D2977* Hitkari mart","2021-10-21 09:37:33.000000",Active,Noida-GT,NCR,Noida,28.626,77.437
"G2043* Chacha Ji","2021-04-30 18:30:00.000000",Active,NCR-UB,NCR,Gurgaon,NULL,NULL
"D2983* Dev Store","2021-04-30 18:30:00.000000",Active,NCR-UB,NCR,Gurgaon,NULL,NULL
"D2984* Sandeep Store","2021-04-30 18:30:00.000000",Active,NCR-UB,NCR,Gurgaon,NULL,NULL
"G2045* Bhim Ji","2021-04-30 18:30:00.000000",Active,NCR-UB,NCR,Gurgaon,NULL,NULL
"D2985* Raj Store","2021-04-30 18:30:00.000000",Active,NCR-UB,NCR,Gurgaon,NULL,NULL
"G2046* Veggies & fruit store","2021-10-23 08:50:37.480730",Active,Gurgaon-GT,NCR,Gurgaon,28.442,77.076
"G2047* Shyam Babu","2021-04-30 18:30:00.000000",Active,NCR-UB,NCR,Gurgaon,NULL,NULL
"G2048* Vikas Yadav","2021-04-30 18:30:00.000000",Active,NCR-UB,NCR,Gurgaon,NULL,NULL
"G2049* Individual warehouse","2021-04-30 18:30:00.000000",Active,NCR-UB,NCR,Gurgaon,NULL,NULL
"G2051* MORE RETAIL LIMITED (SECTOR-4 GR NOIDA)","2021-10-25 06:03:19.000000",Active,NCR-OF-MT,NCR,Noida,28.61078,77.42031
"D2991* Om dairy","2021-10-25 06:23:46.000000",Active,Delhi-GT,NCR,Delhi,28.73,77.133
"G2052* MORE RETAIL LIMITED (sonipath Dc)","2021-10-25 06:26:31.000000",Active,NCR-OF-MT,NCR,Gurgaon,28.99784,77.08087
"G2053* MORE RETAIL LIMITED (KIRTI NAGAR)","2021-10-25 06:41:20.000000",Active,NCR-OF-MT,NCR,Delhi,28.65832,77.14219
"G2061* Max Reach Stores Pvt Ltd Mohali_1062415_Instamart","2021-10-26 07:26:32.000000",Active,NCR-ON-MT,NCR,Mohali,NULL,NULL
"D2994* Gopal dairy","2021-10-26 10:14:35.000000",Active,Delhi-GT,NCR,Delhi,28.71,77.208
"D2997* Phogat fitness club","2021-10-27 11:59:07.024116",Active,Delhi-GT,NCR,Delhi,28.545,77.202
"D3007* RM Nangloi hypermarket","2021-11-01 10:26:55.000000",Active,Delhi-GT,NCR,Delhi,28.682,77.057
"D3008* Prince store","2021-11-05 10:40:36.978596",Active,Noida-GT,NCR,Noida,28.636,77.363
"D3009* SSM ENTERPRISES (Mukherjee nagar) ","2021-11-06 15:00:13.452168",Active,Delhi-GT,NCR,Delhi,28.71,77.209
"D3010* Salman Bhai Delhi","2021-11-06 16:56:56.000000",Active,NCR-UB,NCR,Gurgaon,NULL,NULL
"G2067* Haider","2021-11-07 17:11:40.000000",Active,NCR-UB,NCR,Gurgaon,NULL,NULL
"G2074* RAJESH BHAI","2021-11-08 14:32:11.584653",Active,NCR-UB,NCR,Gurgaon,NULL,NULL
"D3014* mehruli","2021-11-09 05:05:05.679099",Active,NCR-UB,NCR,Gurgaon,NULL,NULL
"G2075* Manoj Yadav","2021-11-09 05:48:27.865935",Active,NCR-UB,NCR,Gurgaon,NULL,NULL
"H5067* KAMAL","2021-11-09 06:23:12.506535",Active,NCR-UB,NCR,Gurgaon,NULL,NULL
"N4108* V .m retails (ELT )","2021-11-11 05:27:43.000000",Active,Noida-GT,NCR,Noida,28.594,77.454
"N4111* Shri ganesh fruits ,Vegetables&Dairy products","2021-11-11 05:42:34.351652",Active,Noida-GT,NCR,Noida,28.594,77.455
"N4113* Green fresh fruits &Veg(Cherry county) ","2021-11-11 05:49:42.348447",Active,Noida-GT,NCR,Noida,28.602,77.447
"G2082* Convenience store","2021-11-11 11:04:40.322631",Active,Gurgaon-GT,NCR,Gurgaon,28.41361,77.0559
"D3017* Frozen frenzy enterprises","2021-11-12 06:59:05.337482",Active,Delhi-GT,NCR,Delhi,28.693,77.173
"N4119* One stop mart(Gaur city 2) ","2021-11-12 07:53:16.173690",Active,Noida-GT,NCR,Noida,28.619,77.423
"N4120* Daily value(Himalyan pride) ","2021-11-12 08:02:51.214350",Active,Noida-GT,NCR,Noida,28.599,77.451
"N4121* Apna store(Himalya pride) ","2021-11-12 08:10:15.074542",Active,Noida-GT,NCR,Noida,28.599,77.451
"G2090* Tornado zym","2021-11-14 06:03:09.000000",Active,NCR-UB,NCR,Gurgaon,NULL,NULL
"N4134* OM SAI LAXMI KIRANA STORE (Crossing Republic) ","2021-11-14 17:13:31.207292",Active,Noida-GT,NCR,Noida,28.626,77.435
"N4135* Nagar store (34 Noida) ","2021-11-15 07:50:01.332484",Active,Noida-GT,NCR,Noida,28.581,77.361
"N4138* Engel grocery store (34, Noida) ","2021-11-15 08:03:49.965707",Active,Noida-GT,NCR,Noida,28.583,77.364
"G2094* 1385	More retail Faridabad Sector 7 HUDA Market","2021-11-15 10:49:19.000000",Active,NCR-OF-MT,NCR,Faridabad,28.36334,77.32405
"G2096* 1391	More Retail  GZB Vijay Nagar","2021-11-15 11:19:52.619066",Active,NCR-OF-MT,NCR,Ghaziabad,28.64671,77.41955
"D3021* 1415	More Retail  Delhi Mukherjee Park","2021-11-15 11:37:51.000000",Active,NCR-OF-MT,NCR,Delhi,28.63846,77.06302
"G2098* 1467	More Retail GZB Vasundhara Sector 15","2021-11-15 11:42:07.000000",Active,NCR-OF-MT,NCR,Ghaziabad,28.6551,77.35717
"D3022* 1493	More Retail GZB Vaishali Sector 5 Shopprix Mall","2021-11-15 11:45:05.000000",Active,NCR-OF-MT,NCR,Ghaziabad,28.655101799999997,77.35060779999999
"G2099* 1501	More Retail  NOIDA Sector 11","2021-11-15 11:47:19.000000",Active,NCR-OF-MT,NCR,Noida,28.59753,77.33345
"F3041* 1564	More Retail  Faridabad Sector 35 Ashoka Enclave","2021-11-15 13:06:37.000000",Active,NCR-OF-MT,NCR,Faridabad,28.47083,77.30858
"G2100* 1601	More Retail  Gurgaon Sector 56 HUDA Market","2021-11-15 13:09:10.000000",Active,NCR-OF-MT,NCR,Gurgaon,28.42868,77.02876
"G2101* 1949	More Retail  GZB Shastri Nagar","2021-11-15 13:13:37.000000",Active,NCR-OF-MT,NCR,Ghaziabad,28.67363,77.46413
"D3025* 1958	More Retail  Delhi Hari Nagar","2021-11-15 13:15:56.000000",Active,NCR-OF-MT,NCR,Delhi,28.63164,77.10366
"G2102* 1975	More Retail  GZB Sector 10 RDC","2021-11-15 13:22:03.000000",Active,NCR-OF-MT,NCR,Ghaziabad,28.65681,77.36905
"F3042* 2080	MORE RETAIL Faridabad Sector 15 HUDA Market","2021-11-16 05:20:27.000000",Active,NCR-OF-MT,NCR,Faridabad,28.6568,77.36905
"N4141* 2092	MORE RETAIL GZB Vasundhara Sector 6","2021-11-16 05:26:29.000000",Active,NCR-OF-MT,NCR,Ghaziabad,28.65945,77.36306
"N4142* 3020	MORE RETAIL  GZB Rajendra Nagar","2021-11-16 05:29:03.000000",Active,NCR-OF-MT,NCR,Ghaziabad,28.65649,77.37647
"N4143* 3023	MORE RETAIL GZB Indirapuram Ahinda Khand 2","2021-11-16 05:31:37.000000",Active,NCR-OF-MT,NCR,Ghaziabad,28.65649,77.37647
"N4144* 3036	MORE RETAIL GZB Rakesh Marg","2021-11-16 05:34:07.000000",Active,NCR-OF-MT,NCR,Ghaziabad,28.65336,77.44248
"N4145* 3110	MORE RETAIL GZB Indirapuram Gaur Green Vista","2021-11-16 05:40:50.000000",Active,NCR-OF-MT,NCR,Ghaziabad,28.63368,77.35309
"G2103* 3111	MORE RETAIL GZB Vaishali Sector 4 Gaur Ganga 2","2021-11-16 13:24:30.000000",Active,NCR-OF-MT,NCR,Ghaziabad,28.6485,77.33961
"G2104* 3153	MORE RETAIL Gurgaon Sector 47 Ava Court","2021-11-16 13:27:09.000000",Active,NCR-OF-MT,NCR,Gurgaon,28.42,77.04517
"G2105* 3171	MORE RETAIL GZB Kaushambi","2021-11-16 13:28:51.000000",Active,NCR-OF-MT,NCR,Ghaziabad,28.65611,77.34597
"N4146* 3187	MORE RETAIL GZB Crossings Republik","2021-11-16 13:30:52.000000",Active,NCR-OF-MT,NCR,Ghaziabad,28.65607,77.3467
"G2106* 3190	MORE RETAIL GZB Indirapuram Mahaluxmi Square","2021-11-16 13:32:41.000000",Active,NCR-OF-MT,NCR,Ghaziabad,28.63575,77.30784
"G2107* 3191	MORE RETAIL Faridabad Sector 49 Sainik Colony","2021-11-16 13:36:02.000000",Active,NCR-OF-MT,NCR,Faridabad,28.39748,77.27043
"G2108* 3198	MORE RETAIL GZB Vasundhara Sector 3","2021-11-16 13:39:55.000000",Active,NCR-OF-MT,NCR,Ghaziabad,28.6656,77.37809
"G2111* 3228	MORE RETAIL Gyan Khand Indirapuram Ghaziabad","2021-11-18 02:36:18.000000",Active,NCR-OF-MT,NCR,Ghaziabad,28.64407,77.34572
"G2112* 3238	MORE RETAIL GZB Vasundhara Sector 12","2021-11-18 02:39:12.000000",Active,NCR-OF-MT,NCR,Ghaziabad,28.55572,77.23108
"G2113* 3239	MORE RETAIL GZB Vasundhara Sector 13","2021-11-18 02:41:06.000000",Active,NCR-OF-MT,NCR,Ghaziabad,28.65749,77.36188
"G2114* 3274	MORE RETAIL Faridabad Sector 21 C","2021-11-18 02:43:43.000000",Active,NCR-OF-MT,NCR,Faridabad,28.43018,77.29402
"G2115* 3275	MORE RETAIL GZB Gaur Valerio Ahinsa Khand Indrapuram","2021-11-18 02:46:04.000000",Active,NCR-OF-MT,NCR,Ghaziabad,28.65757,77.38279
"G2116* 3553	MORE RETAIL Rajnagar Extension North","2021-11-18 02:49:02.000000",Active,NCR-OF-MT,NCR,Ghaziabad,28.6203,77.21214
"G2117* 3615	MORE RETAIL Urban Estate Sec 10 Jind NCR","2021-11-18 02:51:24.194277",Active,NCR-OF-MT,NCR,Gurgaon,29.31237,76.33592
"G2118* 3723	MORE RETAIL Shastri Nagar","2021-11-18 02:53:38.409138",Active,NCR-OF-MT,NCR,Delhi,28.74452,77.27511
"N4154* 6727	 RELIENCE RETAIL LTDBMG Mall Rewari","2021-11-19 09:00:15.000000",Active,NCR-OF-MT,NCR,Rewari,NULL,NULL
"G2132* 2364	 RELIENCE RETAIL LTD JharsaRoad","2021-11-19 09:02:47.000000",Active,NCR-OF-MT,NCR,Gurgaon,28.45467,77.03649
"G2133* 6205	 RELIENCE RETAIL LTD CrownInteriorzMall","2021-11-19 09:04:44.000000",Active,NCR-OF-MT,NCR,Faridabad,28.46927,77.30458
"G2134* 6708	 RELIENCE RETAIL LTD Ansal Plaza","2021-11-19 09:08:36.472091",Active,NCR-OF-MT,NCR,Noida,NULL,NULL
"G2135* 6239	 RELIENCE RETAIL LTD RRL Dwarka","2021-11-19 09:10:08.000000",Active,NCR-OF-MT,NCR,Delhi,28.59692,77.03334
"G2136* 2995	 RELIENCE RETAIL LTD RRL Smart Meenakshi Garden","2021-11-19 09:15:09.273702",Active,NCR-OF-MT,NCR,Gurgaon,NULL,NULL
"G2137* T913	  RELIENCE RETAIL LTD RRL Smart Jaipuria Mall","2021-11-19 09:17:04.000000",Active,NCR-OF-MT,NCR,Ghaziabad,28.64142,77.37548
"G2138* T915	 RELIENCE RETAIL LTD Signature Street","2021-11-19 09:19:55.000000",Active,NCR-OF-MT,NCR,Ghaziabad,28.69095,77.48399
"D3035* TL30 Relience Retail Ltd. Vikaspuri","2021-11-19 09:40:48.000000",Active,NCR-OF-MT,NCR,Delhi,NULL,NULL
"G2140* TH86	 RELIENCE RETAIL LTDSMART Beta Plaza","2021-11-19 10:04:25.000000",Active,NCR-OF-MT,NCR,Noida,28.58224,77.18547
"G2141* TW11	 RELIENCE RETAIL LTD Najafgarh","2021-11-19 10:07:05.000000",Active,NCR-OF-MT,NCR,Delhi,28.61197,76.98785
"G2142* TU21	 RELIENCE RETAIL LTD G3S Mall Rohini","2021-11-19 10:09:35.000000",Active,NCR-OF-MT,NCR,Delhi,28.7344,77.11074
"G2143* TC74	 RELIENCE RETAIL LTD Iris Broadway","2021-11-19 10:14:33.000000",Active,NCR-OF-MT,NCR,Gurgaon,28.40398,76.94593
"G2144* TB22	 RELIENCE RETAIL LTD Galaxy Diamond Plaza","2021-11-19 10:16:13.000000",Active,NCR-OF-MT,NCR,Noida,28.58034,77.34849
"D3036* zaki","2021-11-19 10:30:48.018758",Active,NCR-UB,NCR,Gurgaon,NULL,NULL
"D3037* Preet departmental store(Preet vihar) ","2021-11-19 14:08:36.208634",Active,Delhi-GT,NCR,Delhi,28.598,77.304
"G2145* 6701	 RELIENCE RETAIL LTD DLFMegaMall","2021-11-20 05:57:31.000000",Active,NCR-OF-MT,NCR,Gurgaon,28.4779,77.08943
"G2146* TP06	 RELIENCE RETAIL LTD SMART Aggarwal Prestige Mall","2021-11-20 05:59:16.000000",Active,NCR-OF-MT,NCR,Delhi,28.68897,77.13083
"D3038* TH89	 RELIENCE RETAIL LTD Aero Business Tower","2021-11-20 06:01:56.000000",Active,NCR-OF-MT,NCR,Ghaziabad,28.66766,77.32921
"G2148* TIX3	 RELIENCE RETAIL LTD Aria Mall","2021-11-20 06:10:04.146960",Active,NCR-OF-MT,NCR,Gurgaon,28.38348,77.05018
"D3039* Uniavtar megastore pvt ltd","2021-11-20 06:54:07.000000",Active,Delhi-GT,NCR,Delhi,28.678,77.105
"N4161* Jaycee grand","2021-11-20 12:54:56.053313",Active,Noida-GT,NCR,Noida,28.5881695,77.3993411
"D3044* Chik plaza (Mayur vihar phase-1) ","2021-11-21 01:55:08.134720",Active,Delhi-GT,NCR,Delhi,28.607,77.291
"N4166* 3186	MORE RETAIL GZB Nipun Mall","2021-11-22 05:59:45.000000",Active,NCR-OF-MT,NCR,Ghaziabad,28.65649,77.36032
"N4168* Ast Home Mart","2021-11-22 09:52:17.307799",Active,Noida-GT,NCR,Noida,NULL,NULL
"D3054* Sonu gen store","2021-11-22 13:04:33.581281",Active,Delhi-GT,NCR,Delhi,28.619,77.297
"G2154* Grofers Jaipur","2021-11-24 06:58:34.000000",Active,NCR-ON-MT,NCR,Jaipur,NULL,NULL
"D3060* Jk store","2021-11-25 06:24:28.157283",Active,Delhi-GT,NCR,Delhi,28.566,77.167
"G2156* Garg dastak (sec-31)","2021-11-25 10:03:33.626285",Active,Gurgaon-GT,NCR,Gurgaon,28.453,77.04997
"G2158* Garg dastak(qutab plaza)","2021-11-25 10:08:54.572071",Active,Gurgaon-GT,NCR,Gurgaon,28.4714,77.10195
"G2159* Garg dastak(sec-67)","2021-11-25 10:20:07.168646",Active,Gurgaon-GT,NCR,Gurgaon,28.39,77.067
"G2160* Garg dastak(54)","2021-11-25 10:24:13.644107",Active,Gurgaon-GT,NCR,Gurgaon,28.435,77.105
"G2161* Garg dastak (sec-51)","2021-11-25 10:38:55.041873",Active,Gurgaon-GT,NCR,Gurgaon,28.42556,77.06822
"D3063* Kuber shoppe  Rajouri garden","2021-11-25 10:49:40.021729",Active,Delhi-GT,NCR,Delhi,28.64024504,77.11888164
"D3064* Kuber shoppe model town","2021-11-25 10:53:34.846096",Active,Delhi-GT,NCR,Delhi,28.709,77.192
"D3065* Kuber shoppe kamla Nagar","2021-11-25 10:59:19.900702",Active,Delhi-GT,NCR,Delhi,28.683,77.202
"D3067* Kuber shoppe pitampura","2021-11-25 11:09:15.078462",Active,Delhi-GT,NCR,Delhi,28.702,77.148
"N4176* local vendor(Noida)","2021-11-26 10:17:57.128383",Active,NCR-UB,NCR,Noida,NULL,NULL
"D3072* Best fresh","2021-11-29 13:59:21.088706",Active,Delhi-GT,NCR,Delhi,28.507,77.2
"G2168* Modern Bazaar Sec-63 Noida","2021-11-30 13:17:09.000000",Active,NCR-OF-MT,NCR,Noida,28.62597,77.37519
"G2171* New HR Kissan Mandi","2021-12-02 10:56:01.000000",Active,Gurgaon-GT,NCR,Gurgaon,28.468,77.087
"H5073* Pulse and spices","2021-12-04 05:08:59.000000",Active,Noida-GT,NCR,Noida,28.701,77.421
"H5075* Vdh store","2021-12-04 05:16:14.267958",Active,Noida-GT,NCR,Noida,28.687,77.452
"H5076* Sona mart","2021-12-04 05:18:47.167103",Active,Noida-GT,NCR,Noida,28.674,77.458
"H5078* Jurassic","2021-12-04 05:23:03.632478",Active,Noida-GT,NCR,Noida,28.67,77.449
"G2180* Tista super mart","2021-12-06 06:59:36.979539",Active,Gurgaon-GT,NCR,Gurgaon,28.49708,77.10096
"N4213* Panav Store ","2021-12-06 11:55:17.152118",Active,Noida-GT,NCR,Noida,28.622,77.42
"G2184* Vita Dairy,  F - Block","2021-12-08 09:13:47.360360",Active,Gurgaon-GT,NCR,Gurgaon,28.41789,77.05606
"D3081* ajay sales boy","2021-12-09 04:42:18.000000",Active,NCR-UB,NCR,Gurgaon,NULL,NULL
"JP1000* Max Reach Stores Pvt Ltd MI Road_1112163_Instamart","2021-12-10 09:11:50.000000",Active,NCR-ON-MT,NCR,Jaipur,NULL,NULL
"H5095* Yashoda dairy 2","2021-12-10 09:30:42.541042",Active,Noida-GT,NCR,Noida,28.644,77.34
"G2189* Otipy Internet Pvt. Ltd. Bhangrola Sector-87 Gurgaon","2021-12-10 09:40:40.000000",Active,NCR-ON-MT,NCR,Gurgaon,28.3903,76.91618
"D3090* BIGBAZAAR PACIFIC MALL","2021-12-10 10:06:39.000000",Active,NCR-OF-MT,NCR,Gurgaon,NULL,NULL
"N4228* BIGBAZAAR GAUR CITY NOIDA","2021-12-10 10:09:36.000000",Active,NCR-OF-MT,NCR,Gurgaon,NULL,NULL
"D3093* Manoj confectionery mayur vihar phase 3","2021-12-10 12:29:23.453356",Active,Delhi-GT,NCR,Delhi,28.606,77.331
"D3094* Green chick chop karkarduma","2021-12-10 12:41:57.688772",Active,Delhi-GT,NCR,Delhi,28.651,77.305
"N4231* BIGBAZAR MALL OF INDIA","2021-12-11 09:09:58.000000",Active,NCR-OF-MT,NCR,Gurgaon,NULL,NULL
"N4232* BIG BAZAAR GRAND VENICE-GR NOIDA","2021-12-11 09:12:33.000000",Active,NCR-OF-MT,NCR,Gurgaon,NULL,NULL
"D3096* BIG BAZAAR VASANT KUNJ AMBIA","2021-12-11 09:14:46.000000",Active,NCR-OF-MT,NCR,Gurgaon,NULL,NULL
"D3097* BIGBAZAAR KALKA JI METRO","2021-12-11 09:17:36.000000",Active,NCR-OF-MT,NCR,Gurgaon,NULL,NULL
"H5096* BIGBAZAAR OPULENT MALL  GZB","2021-12-11 09:21:04.000000",Active,NCR-OF-MT,NCR,Gurgaon,NULL,NULL
"H5097* BIG BAZAAR MAHAGUN MALL GZB","2021-12-11 09:23:31.000000",Active,NCR-OF-MT,NCR,Gurgaon,NULL,NULL
"G2194* BIG BASKET OMAXE SOHNA ROAD","2021-12-11 09:26:58.000000",Active,NCR-OF-MT,NCR,Gurgaon,NULL,NULL
"H5098* BIG BAZAAR ADITYA MALL - GZB","2021-12-11 09:28:55.000000",Active,NCR-OF-MT,NCR,Gurgaon,NULL,NULL
"G2195* BIG BAZAAR SAHARA MALL GGN","2021-12-11 09:31:02.000000",Active,NCR-OF-MT,NCR,Gurgaon,NULL,NULL
"D3098* BIG BAZAAR INDERLOK -DEL","2021-12-11 09:45:18.000000",Active,NCR-OF-MT,NCR,Gurgaon,NULL,NULL
"N4233* BIG BAZAAR GREAT INDIAN MALL -NOIDA","2021-12-11 09:47:21.000000",Active,NCR-OF-MT,NCR,Gurgaon,NULL,NULL
"G2196* BIG BAZAAR AMBI MALL -GGN","2021-12-11 10:29:09.000000",Active,NCR-OF-MT,NCR,Gurgaon,NULL,NULL
"D3099* BIG BAZAAR VASANT KUNJ VASAN DEL","2021-12-11 10:58:21.000000",Active,NCR-OF-MT,NCR,Gurgaon,NULL,NULL
"H5105* Vdh rajnagar","2021-12-11 11:06:23.547038",Active,Noida-GT,NCR,Noida,28.701,77.433
"H5106* BIG BASLKET SHIPRA MALL  GZB","2021-12-11 11:06:28.000000",Active,NCR-OF-MT,NCR,Gurgaon,NULL,NULL
"H5107* Vdh kavinagar","2021-12-11 11:09:26.000000",Active,Noida-GT,NCR,Noida,28.672,77.449
"D3100* BIGBAZAAR V3S MALL DEL","2021-12-11 11:11:05.000000",Active,NCR-OF-MT,NCR,Gurgaon,NULL,NULL
"D3101* BIGBAZAAR RAJENDRA PLACE MT-DEL","2021-12-11 11:13:54.000000",Active,NCR-OF-MT,NCR,Gurgaon,NULL,NULL
"D3102* BIGBAZAAR MAYUR VIHAR METRO -DEL","2021-12-11 11:17:00.000000",Active,NCR-OF-MT,NCR,Gurgaon,NULL,NULL
"D3104* Bigbazar orchard road -DEL","2021-12-11 11:26:05.000000",Active,NCR-OF-MT,NCR,Gurgaon,NULL,NULL
"N4236* BIGBAZAAR LOGIX CITY CENTER","2021-12-11 11:29:41.000000",Active,NCR-OF-MT,NCR,Gurgaon,NULL,NULL
"D3107* Madi Mart","2021-12-11 11:32:56.302757",Active,Delhi-GT,NCR,Delhi,28.508,77.167
"F3043* BIGBAZAAR FARIDABAD","2021-12-11 11:36:59.000000",Active,NCR-OF-MT,NCR,Gurgaon,NULL,NULL
"D3109* BIGBAZAAR ROHINI","2021-12-11 11:40:16.000000",Active,NCR-OF-MT,NCR,Gurgaon,NULL,NULL
"G2202* Quality Super Mart","2021-12-12 09:50:06.050335",Active,Gurgaon-GT,NCR,Gurgaon,28.362,76.971
"D3114* Safal dairy (south Avenue","2021-12-12 11:07:15.299836",Active,Delhi-GT,NCR,Delhi,28.608,77.199
"G2205* Unbranded NCR Other","2021-12-13 05:56:25.664845",Active,NCR-UB,NCR,Gurgaon,NULL,NULL
"N4244* GREEN GROCERS(Harlal market)","2021-12-13 08:44:55.000000",Active,Noida-GT,NCR,Noida,28.57,77.444
"N4247* RELIANCE RETAIL LIMITED (MILK BASKET GREATER NOIDA)","2021-12-14 08:50:25.000000",Active,NCR-ON-MT,NCR,Noida,28.6036,77.45429
"N4248* RELIANCE RETAIL LIMITED (MILK BASKET NOIDA)","2021-12-14 09:20:12.000000",Active,NCR-ON-MT,NCR,Noida,28.6312,77.38232
"N4253* A MART(Zeeta-1) ","2021-12-16 02:02:43.199453",Active,Noida-GT,NCR,Noida,28.499,77.519
"G2223* Sai general Store","2021-12-16 07:19:52.887713",Active,Gurgaon-GT,NCR,Gurgaon,28.409,77.046
"H5116* Chaudhary store","2021-12-16 11:05:59.351724",Active,Noida-GT,NCR,Noida,NULL,NULL
"H5121* The English deli","2021-12-18 12:01:22.091133",Active,Noida-GT,NCR,Noida,28.682,77.451
"N4278* NEW SAINSBURY(Omicron-1)","2021-12-19 05:32:48.302007",Active,Noida-GT,NCR,Noida,28.462573600000002,77.55758259999999
"G2235* GROFERS GUDHI,TEHSIL TAORU-HARYANA","2021-12-20 09:05:35.000000",Active,NCR-ON-MT,NCR,Gurgaon,NULL,NULL
"G2237* GROFERS BILASPUR PATAUDI GURGOAN","2021-12-20 09:10:25.000000",Active,NCR-ON-MT,NCR,Gurgaon,NULL,NULL
"N4285* BK Traders(Grocery express) ","2021-12-22 05:48:51.317518",Active,Noida-GT,NCR,Noida,28.529,77.355
"H5127* Grofers DASNA GAZIABAD","2021-12-22 06:39:14.000000",Active,NCR-ON-MT,NCR,Ghaziabad,NULL,NULL
"G2242* Grofers shivanand Marketing-SONEPATH","2021-12-22 06:41:31.000000",Active,NCR-ON-MT,NCR,Gurgaon,NULL,NULL
"G2243* Grofers JHAJJAR","2021-12-22 06:44:26.000000",Active,NCR-ON-MT,NCR,Gurgaon,NULL,NULL
"N4289* Jupiter mini mart","2021-12-22 09:27:44.735672",Active,Noida-GT,NCR,Ghaziabad,NULL,NULL
"N4305* MAA NARAYANI SUPER STORE (141, Noida) ","2021-12-26 08:37:13.800485",Active,Noida-GT,NCR,Noida,28.506,77.413
"D3121* GROFER UTTAM NAGAR","2021-12-28 12:29:35.000000",Active,NCR-ON-MT,NCR,Delhi,NULL,NULL
"JP1001* GROFERS BAIS JAIPUR","2021-12-28 12:42:46.000000",Active,NCR-ON-MT,NCR,Jaipur,NULL,NULL
"G2249* Ssm retail pvt ltd (New)","2021-12-30 03:32:47.293858",Active,Gurgaon-GT,NCR,Gurgaon,28.43485,77.05878
"G2250* Ssm retail pvt ltd(sec-49)","2021-12-30 03:37:07.106118",Active,Gurgaon-GT,NCR,Gurgaon,28.412,77.051
"G2251* Ssm retail pvt ltd(sec-50)","2021-12-30 03:40:07.362476",Active,Gurgaon-GT,NCR,Gurgaon,28.414,77.072
"G2252* Ssm retail pvt ltd(sec-55)","2021-12-30 03:44:39.108797",Active,Gurgaon-GT,NCR,Gurgaon,28.427,77.109
"G2253* Ssm retail pvt ltd(sec-66)","2021-12-30 03:47:03.024887",Active,Gurgaon-GT,NCR,Gurgaon,28.392,77.059
"G2254* Ssm retail pvt ltd(sec-70)","2021-12-30 03:59:02.575048",Active,Gurgaon-GT,NCR,Gurgaon,28.392,77.03
"G2255* Ssm retail pvt ltd(sec-82)","2021-12-30 04:01:09.665649",Active,Gurgaon-GT,NCR,Gurgaon,28.39,76.959
"H5149* Bhole fruits and vegetables","2021-12-30 09:51:16.577157",Active,Noida-GT,NCR,Noida,28.658,77.365
"N4314* Amul Milk Parlour(AWHO)","2021-12-30 12:31:38.000000",Active,Noida-GT,NCR,Noida,28.446,77.511
"N4318* Mother Dairy 15833( AWHO)","2021-12-30 12:44:39.000000",Active,Noida-GT,NCR,Noida,28.449,77.509
"D3122* GROFERS JHILMIL DELHI","2021-12-31 09:36:54.000000",Active,NCR-ON-MT,NCR,Delhi,NULL,NULL
"N4321* GROFER NOIDA-63","2021-12-31 09:40:20.000000",Active,NCR-ON-MT,NCR,Noida,NULL,NULL
"H5153* GROFERS MANOJ VIHAR INDRAPURAM","2021-12-31 09:44:50.000000",Active,NCR-ON-MT,NCR,Ghaziabad,NULL,NULL
"D3123* GROFERS WAZIRPUR-ASHOK  VIHAR","2021-12-31 09:48:03.000000",Active,NCR-ON-MT,NCR,Delhi,NULL,NULL
"H5154* Daily needs","2021-12-31 10:26:13.452857",Active,Noida-GT,NCR,Noida,28.652,77.35
"H5155* Mother dairy Ramprastha greens","2021-12-31 10:28:09.232814",Active,Noida-GT,NCR,Ghaziabad,28.651,77.35
"H5157* Rahul dairy","2021-12-31 10:31:29.382972",Active,Noida-GT,NCR,Noida,28.654,77.356
"N4322* Otipy Internet Pvt. Ltd. ECOTEC 3 GREATER NOIDA","2022-01-04 09:03:32.000000",Active,NCR-ON-MT,NCR,Noida,28.5336,77.44742
"H5165* Quality departmental store","2022-01-07 07:29:56.121891",Active,Noida-GT,NCR,Noida,28.642,77.35
"N4324* Kendriya Bhandar (Sec 36)","2022-01-08 09:23:13.898855",Active,Noida-GT,NCR,Noida,28.572,77.348
"N4327* Kendriya Bhandar (Awho)","2022-01-08 09:31:56.000000",Active,Noida-GT,NCR,Noida,28.446,77.51
"N4329* MOHE(Minister of home Essential)","2022-01-09 10:48:53.000000",Active,Noida-GT,NCR,Noida,28.546,77.376
"F3045* Family mart","2022-01-10 11:07:20.957660",Active,Gurgaon-GT,NCR,Faridabad,NULL,NULL
"G2258* MILKBASKET VIKASPURI DELHI","2022-01-11 13:20:06.000000",Active,NCR-OF-MT,NCR,Delhi,28.63179,77.0682
"G2259* Max Reach Stores Pvt Ltd Panchkula_1229991_Instamart","2022-01-11 15:38:24.000000",Active,NCR-ON-MT,NCR,Gurgaon,NULL,NULL
"H5179* Maarket","2022-01-14 08:01:47.385101",Active,Noida-GT,NCR,Noida,28.675,77.44
"D3131* Kuber khanpan udyog pvt ltd(dwarka","2022-01-16 11:48:08.162382",Active,Delhi-GT,NCR,Delhi,NULL,NULL
"D3132* MITHUN SALES BOY","2022-01-18 06:36:10.727486",Active,NCR-UB,NCR,Gurgaon,NULL,NULL
"D3134* Haider sales boy","2022-01-22 06:22:08.952129",Active,NCR-UB,NCR,Gurgaon,NULL,NULL
"N4356* Brijwasi Dairy","2022-01-23 08:08:45.896226",Active,Noida-GT,NCR,Noida,28.614,77.372
"N4362* Sarvottam bazar(Sector -78 Noida)","2022-01-27 08:27:41.663692",Active,Noida-GT,NCR,Ghaziabad,28.560746,77.3844052
"D3139* kawality bazar rajouri","2022-01-28 06:51:32.928328",Active,Delhi-GT,NCR,Delhi,28.653,77.11852
"H5207* Grocery 4 u","2022-01-28 09:33:18.597008",Active,Noida-GT,NCR,Noida,28.639,77.35
"N4375* PANKAJ BREAD (Sector-62,Noida)","2022-01-29 12:05:43.000000",Active,Noida-GT,NCR,Noida,NULL,NULL
"G2279* Mother dairy 15910","2022-01-30 08:03:27.289852",Active,Gurgaon-GT,NCR,Gurgaon,28.42977,77.09693
"D3141* Kwality bazar (model town)","2022-01-31 10:06:26.813583",Active,Delhi-GT,NCR,Delhi,28.709,77.191
"F3051* GS MART ( FARIDABAD )","2022-01-31 11:39:39.898183",Active,Gurgaon-GT,NCR,Faridabad,NULL,NULL
"N4383* Amul Dairy (Vivek Vihar)","2022-02-01 08:40:42.556593",Active,Noida-GT,NCR,Noida,28.528,77.392
"D3142* Optima Mart","2022-02-02 08:32:38.250091",Active,Delhi-GT,NCR,Delhi,28.64084,77.12027
"D3145* Farm fresh (fbd) ","2022-02-03 09:49:33.379701",Active,Gurgaon-GT,NCR,Faridabad,NULL,NULL
"N4396* GETONDOOR RETAIL PVT LTD(HYDEPARK 78 NOIDA)","2022-02-04 13:17:04.555787",Active,Noida-GT,NCR,Noida,28.564,77.39
"N4402* 6 TEN SUPER  MART (61 Noida)","2022-02-05 13:44:42.813228",Active,Noida-GT,NCR,Noida,28.597,77.369
"F3052* Gunni mini mart (fbd) ","2022-02-07 11:48:59.793682",Active,Gurgaon-GT,NCR,Faridabad,NULL,NULL
"N4406* R.G square RG Residency (Sector-120,Noida)","2022-02-08 13:58:00.696399",Active,Noida-GT,NCR,Noida,28.588,77.398
"F3053* Ankit gen store (fbd) ","2022-02-11 11:05:51.353812",Active,Gurgaon-GT,NCR,Faridabad,NULL,NULL
"D3157* Max Bazaar(Nangloi)","2022-02-11 12:53:04.704799",Active,Delhi-GT,NCR,Delhi,NULL,NULL
"H5232* J.K MART(Pratap vihar gaziyabad)","2022-02-12 11:33:45.872523",Active,Noida-GT,NCR,Noida,28.651,77.411
"N4411* MART 360(Gaur city -1)","2022-02-13 03:34:15.265012",Active,Noida-GT,NCR,Noida,28.613,77.426
"G2292* Santi general store","2022-02-13 07:54:08.050435",Active,Gurgaon-GT,NCR,Gurgaon,28.475,77.009
"D3163* GAUTAM SALES BOY","2022-02-13 10:44:26.831913",Active,NCR-UB,NCR,Gurgaon,NULL,NULL
"D3164* Amul parlour ( meera bagh)","2022-02-14 09:14:55.216204",Active,Delhi-GT,NCR,Delhi,28.659,77.09
"D3165* Dev store( meera bagh)","2022-02-14 09:18:33.313825",Active,Delhi-GT,NCR,Delhi,28.658,77.09
"N4413* AVR SUPER MART (Sec-137 Noida)","2022-02-14 10:52:04.332571",Active,Noida-GT,NCR,Noida,28.512,77.411
"H5237* Delhi bazar","2022-02-21 12:13:46.745115",Active,Noida-GT,NCR,Noida,28.662,77.379
"H5238* Brothers supermarket rajendra nagar","2022-02-21 12:57:51.614855",Active,Noida-GT,NCR,Noida,28.684,77.359
"G2320* Nijam's","2022-02-22 15:18:16.079114",Active,NCR-UB,NCR,Gurgaon,NULL,NULL
"F3055* Ashu store (fbd) ","2022-02-23 07:06:52.249791",Active,Gurgaon-GT,NCR,Faridabad,NULL,NULL
"D3179* AAMIR KHAN SALES BOY ","2022-02-25 09:25:35.501552",Active,NCR-UB,NCR,Gurgaon,NULL,NULL
"D3181* NATURE EGG MOHIT","2022-02-27 12:24:55.319843",Active,NCR-UB,NCR,Gurgaon,NULL,NULL
"G2329* Daily needs 365","2022-03-03 10:22:40.840993",Active,Gurgaon-GT,NCR,Gurgaon,28.46,77.084
"D3188* NOIDA EGG NEW","2022-03-03 13:00:36.422038",Active,NCR-UB,NCR,Gurgaon,NULL,NULL
"N4438* AVR SUPERMART (Gulshan ikebana 143 Noida)","2022-03-04 09:21:19.353278",Active,Noida-GT,NCR,Noida,28.503,77.429
"N4443* Seven Days Mart","2022-03-06 05:30:44.203063",Active,Noida-GT,NCR,Noida,28.564,77.448
"D3209* Aggarwal value mart","2022-03-07 08:27:00.427952",Active,Delhi-GT,NCR,Delhi,28.56152,77.05081
"D3211* Capital Retail private limited ( fair shop lok vihar)","2022-03-08 07:24:02.536016",Active,Delhi-GT,NCR,Delhi,28.69597,77.13577
"JP1002* Max Reach Stores Pvt Ltd Vaishali Nagar_1239161_Instamart","2022-03-08 15:12:21.922900",Active,NCR-ON-MT,NCR,Jaipur,NULL,NULL
"H5246* Daily bachat bazar","2022-03-09 11:05:23.461267",Active,Noida-GT,NCR,Ghaziabad,NULL,NULL
"D3219* SAHIL SALES BOY","2022-03-09 13:02:12.000000",Active,NCR-UB,NCR,Gurgaon,NULL,NULL
"N4460* OH MY GROCERY (128 Noida)","2022-03-11 05:28:00.636783",Active,Noida-GT,NCR,Noida,28.529,77.355
"D3222* BREADTALK","2022-03-11 10:50:06.181904",Active,NCR-HORECA,NCR,Gurgaon,NULL,NULL
"D3224* RISHI SALES BOY","2022-03-11 12:34:32.486362",Active,NCR-UB,NCR,Gurgaon,NULL,NULL
"G2352* WHOLESALE MART","2022-03-11 13:13:53.225151",Active,NCR-ON-MT,NCR,Gurgaon,NULL,NULL
"D3225* Qutub Entertainment Pvt Ltd","2022-03-11 14:30:46.000000",Active,NCR-HORECA,NCR,Gurgaon,NULL,NULL
"G2358* Milkbasket jaipur","2022-03-12 13:05:57.810508",Active,NCR-ON-MT,NCR,Jaipur,NULL,NULL
"H5249* Muskan bakery shop","2022-03-13 09:24:16.687399",Active,Noida-GT,NCR,Ghaziabad,NULL,NULL
"D3229* H and S Enterprises( green chick chop) model town","2022-03-13 10:06:16.881147",Active,Delhi-GT,NCR,Delhi,28.707,77.184
"D3230* Uncle Shop ( pitampura)","2022-03-13 10:10:07.851033",Active,Delhi-GT,NCR,Delhi,28.709,77.143
"N4480* MILKBASKET A SQUIRE MALL  NOIDA","2022-03-13 11:45:39.248458",Active,NCR-ON-MT,NCR,Noida,NULL,NULL
"D3236* KAM PAI","2022-03-13 16:58:45.870511",Active,NCR-HORECA,NCR,Gurgaon,NULL,NULL
"D3237* MAI BAO Restaurant","2022-03-13 17:03:08.924678",Active,NCR-HORECA,NCR,Gurgaon,NULL,NULL
"D3238* The Oberoi New Delhi","2022-03-14 03:40:26.584744",Active,NCR-HORECA,NCR,Gurgaon,NULL,NULL
"N4485* Nagar dairy and genral store","2022-03-15 07:06:25.000000",Active,Noida-GT,NCR,Ghaziabad,NULL,NULL
"N4487* Shakshi genral store","2022-03-15 07:14:08.801909",Active,Noida-GT,NCR,Ghaziabad,NULL,NULL
"G2384* Sanjay store","2022-03-16 09:53:25.447104",Active,Gurgaon-GT,NCR,Gurgaon,28.48265,77.00198
"G2389* Tusaj Lifestyle Pvt Ltd","2022-03-16 13:35:21.862039",Active,NCR-HORECA,NCR,Gurgaon,NULL,NULL
"D3245* Rajmandir nawada","2022-03-21 06:34:18.649562",Active,Delhi-GT,NCR,Delhi,28.62,77.039
"G2391* KB Mart","2022-03-21 11:47:29.566419",Active,Gurgaon-GT,NCR,Gurgaon,28.425,77.059
"G2392* Horeca Test","2022-03-21 12:49:57.000000",Active,NCR-HORECA,NCR,Gurgaon,NULL,NULL
"D3247* Mother Dairy 162","2022-03-22 06:07:49.324379",Active,Delhi-GT,NCR,Delhi,28.582,77.071
"G2397* The Oberoi Gurgaon","2022-03-24 17:14:03.905653",Active,NCR-HORECA,NCR,Gurgaon,NULL,NULL
"N4496* Krishna mart","2022-03-25 10:38:00.148227",Active,Noida-GT,NCR,Noida,28.5646578,77.39721180000001
"D3258* DramZ Whisky Bar & Lounge Pvt Ltd","2022-03-26 15:53:32.676994",Active,NCR-HORECA,NCR,Gurgaon,NULL,NULL
"G2398* Kunal general store","2022-03-27 08:31:50.175445",Active,Gurgaon-GT,NCR,Gurgaon,28.3892,77.05509
"MO1001* Big Basket - Mohali ","2022-03-28 11:32:37.982221",Active,NCR-ON-MT,NCR,Mohali,NULL,NULL
"N4514* The Taza Foods Grocery","2022-03-29 07:11:03.975021",Active,Noida-GT,NCR,Noida,28.561,77.453
"D3266* Kaka Po","2022-03-29 11:31:45.524283",Active,NCR-HORECA,NCR,Gurgaon,NULL,NULL
"D3267* Vipul ","2022-03-29 11:39:33.513534",Active,NCR-HORECA,NCR,Gurgaon,NULL,NULL
"D3268* Ditas","2022-03-30 12:26:56.060052",Active,NCR-HORECA,NCR,Gurgaon,NULL,NULL
"D3270* Cocktails and Dreams Private Limited","2022-04-02 07:04:03.276851",Active,NCR-HORECA,NCR,Gurgaon,NULL,NULL
"D3273* ASHISH SALES BOY","2022-04-04 04:41:47.353759",Active,NCR-UB,NCR,Gurgaon,NULL,NULL
"D3275* Md. Sahil Faisal","2022-04-05 12:30:13.481872",Active,NCR-HORECA,NCR,Gurgaon,NULL,NULL
"CD1001* Max Reach Stores Pvt Ltd Sub City Center_1381441_Instamart","2022-04-07 08:01:02.624039",Active,NCR-ON-MT,NCR,Chandigarh,NULL,NULL
"G2404* Trident Gurgaon","2022-04-10 17:08:29.254120",Active,NCR-HORECA,NCR,Gurgaon,NULL,NULL
"H5259* Maa general store","2022-04-13 10:02:24.261730",Active,Noida-GT,NCR,Noida,28.702,77.429
"H5262* Grahsthi store","2022-04-13 10:12:29.639829",Active,Noida-GT,NCR,Noida,28.7,77.431
"N4525* Empire mart","2022-04-14 13:28:41.679042",Active,Noida-GT,NCR,Noida,28.637,77.366
"N4526* Banti General Store","2022-04-17 10:21:27.364208",Active,Noida-GT,NCR,Ghaziabad,NULL,NULL
"N4527* Chauhan General Store","2022-04-17 10:24:55.631716",Active,Noida-GT,NCR,Ghaziabad,NULL,NULL
"F3063* Pastry Shop","2022-04-18 07:28:13.036363",Active,NCR-HORECA,NCR,Gurgaon,NULL,NULL
"G2417* Aariga Strategy Consultants Pvt Ltd Spencer_762551_Instamart","2022-04-18 10:54:17.953188",Active,NCR-ON-MT,NCR,Gurgaon,28.45298,77.08163
"G2418* AARIGA STRATEGY CONSULTANTS PVT LTD ANSAL PLAZA_886522_Instamart","2022-04-18 11:17:51.386204",Active,NCR-ON-MT,NCR,Gurgaon,28.51111,77.04209
"G2422* PYD Retail Pvt Ltd Sec 54 GGN_1238361_Instamart","2022-04-18 11:33:44.854118",Active,NCR-ON-MT,NCR,Gurgaon,28.43557,77.10488
"G2424* PYD Retail Pvt Ltd Sec 51 GGN_1261844_Instamart","2022-04-18 11:41:44.665959",Active,NCR-ON-MT,NCR,Gurgaon,28.42516,77.06841
"G2425* Roj Retail Pvt Ltd Jharsa Road_1265812_Instamart","2022-04-18 11:43:45.732812",Active,NCR-ON-MT,NCR,Gurgaon,28.44531,77.05638
"G2428* PYD Retail Pvt Ltd DLF Phase 1 (Sec 42)_1239163_Instamart","2022-04-18 13:30:32.324761",Active,NCR-ON-MT,NCR,Gurgaon,28.4626,77.08691
"D3291* Press Club of India","2022-04-19 03:43:04.468949",Active,NCR-HORECA,NCR,Gurgaon,NULL,NULL
"N4529* CJS Foods and Hospitality Private Limited","2022-04-19 05:29:20.775088",Active,NCR-HORECA,NCR,Gurgaon,NULL,NULL
"H5272* Jai shree krishna dairy","2022-04-19 10:07:15.287392",Active,Noida-GT,NCR,Noida,28.634,77.362
"H5274* Vikash dairy","2022-04-20 11:47:10.000000",Active,Noida-GT,NCR,Noida,28.642,77.341
"D3292* Lair","2022-04-21 08:34:45.541979",Active,NCR-HORECA,NCR,Gurgaon,NULL,NULL
"D3293* The Chatter House","2022-04-21 08:43:38.683316",Active,NCR-HORECA,NCR,Gurgaon,NULL,NULL
"H5282* Shivam jee Namkeen and genral store","2022-04-22 10:57:56.614871",Active,Noida-GT,NCR,Noida,28.634,77.358
"JP1003* BIGBASKET JAIPUR","2022-04-25 12:22:45.946665",Active,NCR-ON-MT,NCR,Jaipur,NULL,NULL
"D3308* R K EGGS","2022-04-27 09:05:07.813637",Active,NCR-UB,NCR,Delhi,NULL,NULL
"D3309* OBEROI EGGS","2022-04-27 09:11:59.271825",Active,NCR-UB,NCR,Delhi,NULL,NULL
"D3310* AMUIYA SOPE","2022-04-27 09:18:18.805480",Active,NCR-UB,NCR,Delhi,NULL,NULL
"D3311* ROHIT SAHU","2022-04-27 09:30:29.746099",Active,NCR-UB,NCR,Delhi,NULL,NULL
"D3312* DEEPAK KUMAR","2022-04-27 09:34:50.608220",Active,NCR-UB,NCR,Delhi,NULL,NULL
"D3313* ANUP KUMAR","2022-04-27 09:38:11.014502",Active,NCR-UB,NCR,Delhi,NULL,NULL
"D3314* SURENDRA CHACHA","2022-04-27 09:44:04.353223",Active,NCR-UB,NCR,Delhi,NULL,NULL
"G2435* Big Mirchi overseas","2022-04-27 12:46:45.807180",Active,Gurgaon-GT,NCR,Gurgaon,28.416,77.045
"H5286* Your Shop","2022-04-27 13:07:16.593381",Active,Noida-GT,NCR,Noida,28.643,77.383
"D3315* Madaan store (saket) ","2022-04-27 17:45:52.854677",Active,Delhi-GT,NCR,Delhi,28.532,77.2
"N4540* Rajesh store","2022-04-28 10:05:25.205328",Active,Noida-GT,NCR,Ghaziabad,NULL,NULL
"G2437* Fast n fresh mart(86)","2022-04-28 13:19:08.842617",Active,Gurgaon-GT,NCR,Gurgaon,28.39747,76.93481
"D3316* RAVI SALES BOY","2022-04-29 01:34:27.489004",Active,NCR-UB,NCR,Delhi,NULL,NULL
"D3320* AASU ","2022-04-29 04:54:55.961563",Active,NCR-UB,NCR,Delhi,NULL,NULL
"D3321* Grocery house","2022-04-29 12:29:22.131876",Active,Delhi-GT,NCR,Delhi,28.672,77.092
"D3330* Tip top corner","2022-04-30 09:59:37.636372",Active,Delhi-GT,NCR,Delhi,28.696,77.205
"G2441* ROJ RETAILS PVT LTD Sector 28_1298919_Instamart","2022-04-30 11:26:55.105290",Active,NCR-ON-MT,NCR,Gurgaon,28.47236,77.07121
"G2442* Roj Retails Private Limited Sec 67 GGN_1278169_Instamart","2022-04-30 11:38:33.000000",Active,NCR-ON-MT,NCR,Gurgaon,28.39143,77.05737
"D3331* suraj unbranded ajay","2022-04-30 14:27:10.737069",Active,NCR-UB,NCR,Delhi,NULL,NULL
"D3332*  S K SINGH MITHUN UB","2022-04-30 14:37:24.640210",Active,NCR-UB,NCR,Delhi,NULL,NULL
"D3333* MANU UB ASHISH","2022-04-30 14:52:46.666079",Active,NCR-UB,NCR,Delhi,NULL,NULL
"D3334* MANESHER UB RISHI","2022-04-30 15:06:42.795785",Active,NCR-UB,NCR,Delhi,NULL,NULL
"N4547* ELT (Sector 77)","2022-05-01 10:06:08.805581",Active,Noida-GT,NCR,Noida,28.568,77.393
"N4551* Pick and mix super market","2022-05-02 08:58:11.020966",Active,Noida-GT,NCR,Noida,28.593,77.453
"N4555* Save mart","2022-05-02 09:34:01.919473",Active,Noida-GT,NCR,Noida,28.589,77.43
"D3336* Basin store( kirti nagar)","2022-05-02 09:34:39.702369",Active,Delhi-GT,NCR,Delhi,28.65679,77.14079
"D3337* p s rawat ub ubranded ajay","2022-05-02 11:01:07.047398",Active,NCR-UB,NCR,Delhi,NULL,NULL
"H5291* Shyam dairy","2022-05-03 13:56:19.033005",Active,Noida-GT,NCR,Noida,28.641,77.375
"D3345* Rahul eggs","2022-05-04 09:50:31.770598",Active,NCR-HORECA,NCR,Gurgaon,NULL,NULL
"D3347* MAYOR SATYAJIT LUCKNOW CANTEEN","2022-05-04 12:28:06.182725",Active,NCR-UB,NCR,Delhi,NULL,NULL
"G2446* variety store","2022-05-04 12:36:11.600802",Active,Gurgaon-GT,NCR,Gurgaon,28.41752,77.05124
"D3354* NEW SHOP CSTORE NETWORK PVT LTD , KAMLA NAGAR ,SHAKTI NAGAR , DELHI","2022-05-05 11:51:51.439152",Active,NCR-OF-MT,NCR,Delhi,28.68591,77.19646
"D3357* NEW SHOP CSTORE NETWORK PVT LTD , SHUBHASH NAGAR , DELHI","2022-05-05 12:05:27.301675",Active,NCR-OF-MT,NCR,Delhi,28.63745,77.04254
"D3366* Mother dairy 15160 ( sec 9 Dwarka )","2022-05-05 18:36:56.096904",Active,Delhi-GT,NCR,Delhi,28.583,77.071
"CD1002* MODERN BAZAAR , HOTALE DIVYADEEP ,HIMALYA MARG , CHANDIGARH ","2022-05-06 03:26:17.007111",Active,NCR-OF-MT,NCR,Chandigarh,28.574573699999995,77.3113254
"D3368* ABHAY STORE UB ASHISH","2022-05-06 10:26:08.796716",Active,NCR-UB,NCR,Delhi,NULL,NULL
"D3374* Mother dairy ","2022-05-07 03:29:38.281256",Active,Delhi-GT,NCR,Delhi,NULL,NULL
"D3377* SANJAY bakery UB ASHISH","2022-05-07 11:39:02.848409",Active,NCR-UB,NCR,Delhi,NULL,NULL
"D3378* RANJAN STORE UB RAVI","2022-05-08 07:22:02.635924",Active,NCR-UB,NCR,Delhi,NULL,NULL
"H5305* S k mart grocery shop","2022-05-08 10:14:59.603698",Active,Noida-GT,NCR,Noida,NULL,NULL
"G2447* Anushka sales Agency","2022-05-09 05:06:54.740456",Active,Gurgaon-GT,NCR,Faridabad,NULL,NULL
"G2450* Grofers gopalpura","2022-05-10 15:26:02.200165",Active,NCR-ON-MT,NCR,Gurgaon,NULL,NULL
"G2451* Shri Krishna Store","2022-05-11 03:56:58.744101",Active,Gurgaon-GT,NCR,Gurgaon,28.418,77.056
"CD1003* Max Reach Stores Pvt Ltd Sector 17 B_1299281_Instamart","2022-05-11 15:10:51.121642",Active,NCR-ON-MT,NCR,Chandigarh,NULL,NULL
"D3397* KOSHAL BAKERY","2022-05-12 12:22:37.240696",Active,NCR-UB,NCR,Delhi,NULL,NULL
"H5313* Shakti store","2022-05-13 05:51:26.035018",Active,Noida-GT,NCR,Ghaziabad,NULL,NULL
"D3399* ashok ub mithun","2022-05-15 06:08:37.997060",Active,NCR-UB,NCR,Delhi,NULL,NULL
"D3401* MUKESH UB MITHUN","2022-05-16 06:08:39.906146",Active,NCR-UB,NCR,Delhi,NULL,NULL
"D3409* Raj Mandir Hyter rbl bank ","2022-05-17 06:22:35.788012",Active,Delhi-GT,NCR,Delhi,28.692,77.177
"H5320* Santosh fruit and vegetable","2022-05-17 11:40:06.988400",Active,Noida-GT,NCR,Ghaziabad,NULL,NULL
"D3410* RANJEET UB AJAY","2022-05-17 12:50:12.164760",Active,NCR-UB,NCR,Delhi,NULL,NULL
"D3412* Rahul eggs {kesav puram","2022-05-19 10:55:16.487336",Active,Delhi-GT,NCR,Delhi,28.688,77.162
"D3413* GHANSHYAM UB AJAY","2022-05-19 11:22:14.079296",Active,NCR-UB,NCR,Delhi,NULL,NULL
"D3414* Uncle egg uttam nagar","2022-05-19 13:05:17.236402",Active,Delhi-GT,NCR,Delhi,28.6388971,77.075501
"D3420* ZAFAR UB  MITHUN","2022-05-20 14:51:24.144545",Active,NCR-UB,NCR,Delhi,NULL,NULL
"D3421* shikander store ub ashish","2022-05-22 03:51:58.223950",Active,NCR-UB,NCR,Delhi,NULL,NULL
"N4566* AMANAT RETAILS(78Noida)","2022-05-23 08:10:33.477308",Active,Noida-GT,NCR,Noida,28.56,77.385
"D3427* munna ub mithun","2022-05-24 14:44:02.184865",Active,NCR-UB,NCR,Delhi,NULL,NULL
"D3428* mukesh ub rakesh","2022-05-25 04:10:42.462427",Active,NCR-UB,NCR,Delhi,NULL,NULL
"D3437* RINKU UB MITHUN","2022-05-26 14:39:32.392700",Active,NCR-UB,NCR,Delhi,NULL,NULL
"G2454* Amazon Sonipath ","2022-05-26 16:43:59.773262",Active,NCR-ON-MT,NCR,Gurgaon,NULL,NULL
"H5329* Bulk udhyog","2022-05-27 11:33:40.385598",Active,Noida-GT,NCR,Noida,28.648,77.403
"N4568* Freshlee farm groceries pvt. Ltd . Alpha-1","2022-05-30 05:55:48.867692",Active,Noida-GT,NCR,Noida,28.477,77.521
"D3439* Pearl Boutique Bakery","2022-05-30 08:32:56.096796",Active,NCR-HORECA,NCR,Delhi,NULL,NULL
"D3440* AZIMAL UB  AJAY","2022-05-30 09:06:25.616854",Active,NCR-UB,NCR,Delhi,NULL,NULL
"N4569* Freshlee farm groceries pvt ltd - Gamma","2022-05-30 09:21:49.048362",Active,Noida-GT,NCR,Noida,28.487,77.506
"N4570* Freshlee farm groceries pvt ltd - Panorma","2022-05-30 09:25:33.667084",Active,Noida-GT,NCR,Noida,28.46,77.523
"N4571* Freshlee farm groceries pvt ltd - Pii 2","2022-05-30 09:32:38.617010",Active,Noida-GT,NCR,Noida,28.452,77.506
"D3441* baba dairy ub rishi","2022-05-31 10:38:02.982869",Active,NCR-UB,NCR,Delhi,NULL,NULL
"N4572* 6TEN ESS VEE FOODS (Sector-74)","2022-06-01 07:49:19.166258",Active,Noida-GT,NCR,Noida,28.573,77.392
"D3445* WASEEM UB MITHUN","2022-06-01 12:16:24.039315",Active,NCR-UB,NCR,Delhi,NULL,NULL
"N4573* AARIGA STRATEGY CONSULTANT PVT LTD SEC46_406773_Instamart","2022-06-03 11:10:57.198877",Active,NCR-ON-MT,NCR,Noida,28.54947,77.36302
"N4578* Roj Retail Pvt Ltd Sarfabad_1261845_Instamart","2022-06-03 11:58:40.385385",Active,NCR-ON-MT,NCR,Noida,28.58871,77.38222
"H5334* ROJ RETAILS PVT LTD Shakti Khand Indirapuram_1278173_Instamart","2022-06-03 12:12:39.336643",Active,NCR-ON-MT,NCR,Ghaziabad,28.64759,77.38121
"N4581* Aariga Strategy Consultants Pvt Ltd Sector 18_969385_Instamart","2022-06-03 12:34:56.890251",Active,NCR-ON-MT,NCR,Noida,28.58432,77.3199
"D3450* Aariga Strategy Consultant Pvt Ltd Malviya_406774_Instamart","2022-06-04 06:50:34.696791",Active,NCR-ON-MT,NCR,Delhi,28.5384,77.21466
"D3451* Aariga Strategy consultant pvt ltd Pitampura_649839_Instamart","2022-06-04 06:56:04.021608",Active,NCR-ON-MT,NCR,Delhi,28.69699,77.13006
"D3452* Aariga Strategy Consultant Pvt Ltd Rajouri_649851_Instamart","2022-06-04 07:00:31.642957",Active,NCR-ON-MT,NCR,Delhi,28.64876,77.12406
"D3454* Aargia strategy consultant Pvt Ltd Laxmi N_649841_Instamart","2022-06-04 07:11:57.944254",Active,NCR-ON-MT,NCR,Delhi,28.64216,77.28226
"D3458* Aariga Strategy Consultants Pvt Ltd Janakpuri_762550_Instamart","2022-06-04 07:50:29.596104",Active,NCR-ON-MT,NCR,Delhi,28.62169,77.08331
"D3459* Aariga Strategy Consultants Pvt Ltd Munirika_810368_Instamart","2022-06-04 07:55:22.863654",Active,NCR-ON-MT,NCR,Delhi,28.55649,77.17482
"D3460* Aariga Strategy Consultants Pvt Ltd Vardhman Mall_816651_Instamart","2022-06-04 08:00:18.894998",Active,NCR-ON-MT,NCR,Delhi,28.70183,77.18197
"D3461* Aariga Strategy Consultants Pvt Ltd Kotla Mubarakpur","2022-06-04 08:04:25.470964",Active,NCR-ON-MT,NCR,Delhi,NULL,NULL
"D3464* Max Reach Stores Pvt Ltd Laxmi Nagar2_1099458_Instamart","2022-06-04 09:02:53.980989",Active,NCR-ON-MT,NCR,Delhi,28.60829,77.29265
"D3465* Max Reach Stores Pvt Ltd Janakpuri 2_1062421_Instamart","2022-06-04 09:06:35.542195",Active,NCR-ON-MT,NCR,Delhi,28.62046,77.04069
"D3466* Max Reach Stores Pvt Ltd Janakpuri 4_1113110_Instamart","2022-06-04 09:09:40.419443",Active,NCR-ON-MT,NCR,Delhi,28.60319,77.05713
"D3467* Max Reach Stores Pvt Ltd Dilshad Garden 2_1099459_Instamart","2022-06-04 09:18:03.245359",Active,NCR-ON-MT,NCR,Delhi,28.6562,77.28186
"D3470* KULDEEP UB RISHI","2022-06-04 09:49:09.562566",Active,NCR-UB,NCR,Delhi,NULL,NULL
"D3473* Max Reach Stores Pvt. Ltd. Rohini_1062023_Instamart","2022-06-04 11:07:36.333922",Active,NCR-ON-MT,NCR,Delhi,28.7163,77.11493
"D3474* Max Reach Stores Pvt Ltd Janakpuri-Rajouri_1062420_Instamart","2022-06-04 11:11:45.343548",Active,NCR-ON-MT,NCR,Delhi,28.64037,77.1075
"D3475* Max Reach Stores Pvt Ltd Karol Bagh2_1062419_Instamart","2022-06-04 11:15:31.514687",Active,NCR-ON-MT,NCR,Delhi,28.64516,77.2011
"D3481* PYD Retail Pvt. Ltd. Safdarjung Enclave_1229998_Instamart","2022-06-04 12:17:56.966410",Active,NCR-ON-MT,NCR,Delhi,28.56748,77.18969
"D3483* PYD Retail Pvt. Ltd. Patel Nagar_1229997_Instamart","2022-06-04 12:26:39.234025",Active,NCR-ON-MT,NCR,Delhi,28.65024,77.16107
"D3484* PYD Retail Pvt. Ltd. Vivek Vihar_1231055_Instamart","2022-06-04 12:31:19.980826",Active,NCR-ON-MT,NCR,Delhi,28.67693,77.32109
"D3485* PYD Retail Private Limited Ashok Vihar 3_1230000_Instamart","2022-06-04 12:38:11.070245",Active,NCR-ON-MT,NCR,Delhi,28.68185,77.18466
"D3488* ANURAG UB RAKESH","2022-06-05 08:53:44.664300",Active,NCR-UB,NCR,Delhi,NULL,NULL
"D3489* SONU UB RAKESH","2022-06-05 08:57:25.456715",Active,NCR-UB,NCR,Delhi,NULL,NULL
"D3490* RAJAN UB RAKESH","2022-06-06 06:58:32.380577",Active,NCR-UB,NCR,Delhi,NULL,NULL
"D3491* LALU UB ASHISH","2022-06-08 08:09:02.462260",Active,NCR-UB,NCR,Delhi,NULL,NULL
"D3493* Rajmandir  Preet Vihar","2022-06-08 10:44:19.565093",Active,Delhi-GT,NCR,Delhi,28.639,77.292
"D3494* Sunrise F & B Restaurant Pvt. Ltd","2022-06-09 04:35:23.022806",Active,NCR-HORECA,NCR,Delhi,NULL,NULL
"D3495* White Water cafe Pvt. Ltd","2022-06-09 04:39:15.593188",Active,NCR-HORECA,NCR,Delhi,NULL,NULL
"D3496* TARUN STORE UB ASHISH","2022-06-10 02:54:01.849354",Active,NCR-UB,NCR,Delhi,NULL,NULL
"D3497* Swan- By Kode","2022-06-10 05:56:33.126932",Active,NCR-HORECA,NCR,Delhi,NULL,NULL
"D3498* PaPaYa","2022-06-10 05:59:52.836218",Active,NCR-HORECA,NCR,Delhi,NULL,NULL
"N4584* sample noida ","2022-06-10 06:35:55.546971",Active,Noida-GT,NCR,Noida,NULL,NULL
"D3500* SALIM UB MITHUN","2022-06-11 07:25:36.405087",Active,NCR-UB,NCR,Delhi,NULL,NULL
"D3502* Munshi ub ajay","2022-06-11 12:22:23.605348",Active,NCR-UB,NCR,Delhi,NULL,NULL
"D3503* KULDEEP DIRECT SALE","2022-06-12 07:06:35.019835",Active,NCR-UB,NCR,Delhi,NULL,NULL
"H5370* Day to day shopping mart","2022-06-13 10:37:38.639779",Active,Noida-GT,NCR,Noida,28.498,77.52
"D3511* Happy Happy farm","2022-06-13 12:21:43.424924",Active,Delhi-GT,NCR,Delhi,28.583,77.072
"D3512* PYD Retail Pvt Ltd Khanpur_1261841_Instamart","2022-06-13 13:14:23.406092",Active,NCR-ON-MT,NCR,Delhi,28.51496,77.22962
"D3516* SOMVEER UB DIRCET SALE","2022-06-13 16:29:55.851911",Active,NCR-UB,NCR,Delhi,NULL,NULL
"D3517* RAMESH UB ATIF","2022-06-14 06:56:54.959785",Active,NCR-UB,NCR,Delhi,NULL,NULL
"F3066* RELIANCE RETAIL LTD , NIT-3 , FARIDABAD - HARYANA","2022-06-14 12:21:02.396056",Active,NCR-OF-MT,NCR,Faridabad,28.39185,77.29078
"F3067* RELIANCE RETAIL LTD , SREC-28 , FARIDABAD - HARYANA","2022-06-14 12:39:13.905416",Active,NCR-OF-MT,NCR,Faridabad,28.43489,77.31213
"D3518* R.m.k.b Hypermarket","2022-06-14 14:18:40.457480",Active,Delhi-GT,NCR,Delhi,28.658,77.195
"D3519* PARAMAHANS UB AJAY ","2022-06-14 16:03:01.175633",Active,NCR-UB,NCR,Delhi,NULL,NULL
"D3520* NITESH UB AJAY","2022-06-14 16:15:39.197546",Active,NCR-UB,NCR,Delhi,NULL,NULL
"D3521* LOVE KHUS DIRCET SALE","2022-06-14 16:25:15.125584",Active,NCR-UB,NCR,Delhi,NULL,NULL
"D3522* PITAMBER DIRECT SALE","2022-06-15 05:02:42.878846",Active,NCR-UB,NCR,Delhi,NULL,NULL
"D3524* Roj Retails Private Limited Diving Road_1294674_Instamart","2022-06-15 09:23:08.554899",Active,NCR-ON-MT,NCR,Delhi,28.74665,77.13035
"D3525* Roj Retails Pvt Ltd Timarpur_1325203_Instamart","2022-06-15 09:31:06.970568",Active,NCR-ON-MT,NCR,Delhi,28.71045,77.20545
"D3528* Roj Retail Pvt Ltd Kirti Nagar_1261842_Instamart","2022-06-15 11:18:16.746463",Active,NCR-ON-MT,NCR,Delhi,28.65136,77.1412
"D3532* PYD Retail Pvt Ltd Mayapuri_1261843_Instamart","2022-06-15 11:27:36.557597",Active,NCR-ON-MT,NCR,Delhi,28.63064,77.127
"D3534* Prime master Baker","2022-06-15 15:29:00.947124",Active,Delhi-GT,NCR,Delhi,28.693,77.173
"D3537* White Water cafe Pvt. Ltd","2022-06-16 05:43:31.269040",Active,NCR-HORECA,NCR,Delhi,NULL,NULL
"D3539* Shree shyam store sec-7 Dwarka","2022-06-16 06:18:40.779687",Active,Delhi-GT,NCR,Delhi,28.546,77.069
"D3544* PYD Retail Pvt Ltd Vasant Kunj_1238360_Instamart","2022-06-16 11:25:40.271126",Active,NCR-ON-MT,NCR,Delhi,28.52548,77.15429
"D3545* Roj Retail Pvt Ltd Greater Kailash_1267918_Instamart","2022-06-16 15:16:56.074642",Active,NCR-ON-MT,NCR,Delhi,28.54088,77.2622
"D3546* Roj Retail Pvt Ltd Kailash Colony_1267917_Instamart","2022-06-16 15:22:35.638449",Active,NCR-ON-MT,NCR,Delhi,28.55804,77.23609
"D3547* KISHAN EGGS AJAY","2022-06-16 16:38:55.218674",Active,NCR-UB,NCR,Delhi,NULL,NULL
"D3548* SONU DIRCET SALE","2022-06-16 16:50:32.186708",Active,NCR-UB,NCR,Delhi,NULL,NULL
"D3549* VINOD UB RAKESH","2022-06-17 06:36:06.307023",Active,NCR-UB,NCR,Delhi,NULL,NULL
"D3552* SHIV STORE UB MITHUN","2022-06-18 06:58:20.080310",Active,NCR-UB,NCR,Delhi,NULL,NULL
"D3553* NATURES BASKET LTD , DISTRICT CENTER , SAKET , DELHI 110017","2022-06-18 07:14:08.052712",Active,NCR-OF-MT,NCR,Delhi,28.61738,77.13076
"D3554* NATURES BASKET LTD , PUNJABI BAGH , DELHI 110017","2022-06-18 07:19:45.675902",Active,NCR-OF-MT,NCR,Delhi,28.577519300000002,77.0017332
"D3555* MOVE TO BIHAR ","2022-06-18 12:33:47.325393",Active,NCR-UB,NCR,Delhi,NULL,NULL
"D3556* SAMSHER UB MITHUN","2022-06-19 08:40:26.698089",Active,NCR-UB,NCR,Delhi,NULL,NULL
"D3558* PYD Retail Private Limited Mayur Vihar 2_1230886_Instamart","2022-06-19 10:27:23.313904",Active,NCR-ON-MT,NCR,Delhi,28.62621,77.30383
"H5375* Shri krishna store","2022-06-19 10:29:28.050668",Active,Noida-GT,NCR,Noida,NULL,NULL
"H5383* Mithila grocery ","2022-06-19 12:17:56.911001",Active,Noida-GT,NCR,Ghaziabad,NULL,NULL
"D3559* SALAMAT CAKE UB RAKESH","2022-06-19 12:47:25.768625",Active,NCR-UB,NCR,Delhi,NULL,NULL
"D3563* ROJ RETAILS PRIVATE LIMITED Tihar Jail_1278167_Instamart","2022-06-20 11:55:44.736771",Active,NCR-ON-MT,NCR,Delhi,28.61125,77.09478
"D3565* Cake Palace","2022-06-21 05:18:18.332628",Active,NCR-UB,NCR,Delhi,NULL,NULL
"D3576* Richi richi bazar sec-10 dwarka","2022-06-21 10:14:07.887775",Active,Delhi-GT,NCR,Delhi,28.583,77.059
"G2469* NATURES BASKET LTD , SOUTH POINT MALL , GURGAON","2022-06-21 15:53:55.088784",Active,NCR-OF-MT,NCR,Gurgaon,28.44816,77.09681
"D3578* Green chick chop p.v","2022-06-22 11:20:08.068058",Active,Delhi-GT,NCR,Delhi,28.677,77.111
"D3579* Mother dairy 177 (Ramphal chowk sec 7) ","2022-06-23 12:20:04.106870",Active,Delhi-GT,NCR,Delhi,28.583,77.071
"D3580* RAJ TRADER","2022-06-23 14:26:42.475471",Active,NCR-UB,NCR,Delhi,NULL,NULL
"D3591* Theobroma Foods Private Limited","2022-06-24 09:58:36.660747",Active,NCR-UB,NCR,Delhi,NULL,NULL
"D3595* YOGESH UB ASHISH","2022-06-25 05:00:13.379961",Active,NCR-UB,NCR,Delhi,NULL,NULL
"D3604* RAJU UB RAKESH","2022-06-25 09:20:54.938672",Active,NCR-UB,NCR,Delhi,NULL,NULL
"D3605* R K HOTLIERS","2022-06-25 10:54:25.732707",Active,NCR-UB,NCR,Delhi,NULL,NULL
"D3606* Daily deal supermarket","2022-06-25 11:46:44.911519",Active,Delhi-GT,NCR,Delhi,28.632,77.14
"D3607* RELIANCE RETAIL LTD , PATOUDI ROAD , GURGAON","2022-06-25 12:07:05.952156",Active,NCR-OF-MT,NCR,Delhi,NULL,NULL
"D3626* VIJAY  STORE UB AJAY","2022-06-28 07:28:19.681665",Active,NCR-UB,NCR,Delhi,NULL,NULL
"D3627* NEW MORNING STORE UB MITHUN","2022-06-28 07:38:25.855997",Active,NCR-UB,NCR,Delhi,NULL,NULL
"D3632* RELIANCE RETAIL LTD R - P BAGH , DELHI","2022-06-28 12:00:39.479787",Active,NCR-OF-MT,NCR,Delhi,28.69411,77.18528
"D3633* SHYAM UB AJAY","2022-06-28 13:02:56.493983",Active,NCR-UB,NCR,Delhi,NULL,NULL
"D3635* Shree Ram store (Rama mkt munirka) ","2022-06-29 11:46:18.862220",Active,Delhi-GT,NCR,Delhi,28.559,77.171
"G2482* Milk UP","2022-06-30 05:10:55.295265",Active,Gurgaon-GT,NCR,Gurgaon,28.43,77.083
"D3636* NARESH STORE ","2022-06-30 06:31:49.345795",Active,Delhi-GT,NCR,Delhi,28.709,77.109
"D3640* RMBV HYPERMARKET LLP ","2022-06-30 13:08:26.392863",Active,Delhi-GT,NCR,Delhi,28.71077914722371,77.1405313740345
"D3641* JIVAN UB AJAY","2022-06-30 14:13:12.298285",Active,NCR-UB,NCR,Delhi,NULL,NULL
"MO1002* Max Reach Stores Pvt Ltd Sector 63_1339713_Instamart","2022-06-30 16:04:59.000665",Active,NCR-ON-MT,NCR,Mohali,NULL,NULL
"D3642* RAHUL UB ATIF","2022-07-02 03:05:44.393262",Active,NCR-UB,NCR,Delhi,NULL,NULL
"D3646* RUKSAR UB ASHISH","2022-07-02 06:41:35.522768",Active,NCR-UB,NCR,Delhi,NULL,NULL
"D3647* GAURAV DIRECT SALE","2022-07-03 09:23:57.724428",Active,NCR-UB,NCR,Delhi,NULL,NULL
"D3669* TALIF UB  DIRECT SALE","2022-07-04 11:29:09.194658",Active,NCR-UB,NCR,Delhi,NULL,NULL
"D3675* KUSHAL GENERAL STORE ","2022-07-05 13:21:29.235154",Active,Delhi-GT,NCR,Delhi,28.717,77.059
"D3677* Bon Ton","2022-07-07 06:38:29.626255",Active,NCR-HORECA,NCR,Delhi,NULL,NULL
"H5428* Robin store","2022-07-07 10:03:52.589946",Active,Noida-GT,NCR,Ghaziabad,NULL,NULL
"H5430* Hindon provision store","2022-07-07 10:08:56.229814",Active,Noida-GT,NCR,Ghaziabad,NULL,NULL
"H5431* Shiv dairy and bakery","2022-07-07 10:11:49.812867",Active,Noida-GT,NCR,Ghaziabad,NULL,NULL
"H5432* Sai shyam kirana store","2022-07-07 10:17:22.125883",Active,Noida-GT,NCR,Ghaziabad,NULL,NULL
"H5433* Cura  mart","2022-07-07 10:20:12.599775",Active,Noida-GT,NCR,Ghaziabad,NULL,NULL
"H5434* Balaji store","2022-07-07 10:22:16.477692",Active,Noida-GT,NCR,Ghaziabad,NULL,NULL
"H5435* Harikishan store","2022-07-07 10:24:22.726491",Active,Noida-GT,NCR,Ghaziabad,NULL,NULL
"H5436* Shyam dairy","2022-07-07 10:25:56.105265",Active,Noida-GT,NCR,Ghaziabad,NULL,NULL
"H5437* Balaji dairy and confectionary","2022-07-07 10:27:39.794670",Active,Noida-GT,NCR,Ghaziabad,NULL,NULL
"H5438* Inder provision store","2022-07-07 10:29:25.282670",Active,Noida-GT,NCR,Ghaziabad,NULL,NULL
"H5440* Daily fresh confectionary","2022-07-07 10:33:20.930741",Active,Noida-GT,NCR,Ghaziabad,NULL,NULL
"H5442* Shivam store","2022-07-07 10:41:33.319516",Active,Noida-GT,NCR,Ghaziabad,NULL,NULL
"H5443* Shri shyam store","2022-07-07 10:43:49.339977",Active,Noida-GT,NCR,Ghaziabad,NULL,NULL
"H5446* Shri shyam grocery","2022-07-07 10:52:42.477422",Active,Noida-GT,NCR,Ghaziabad,NULL,NULL
"D3687* haider ali direct sale","2022-07-08 09:12:13.285622",Active,NCR-UB,NCR,Delhi,NULL,NULL
"F3069* MORE MEGA MART , HUDA MARKET ,SEC-16 ,FARIDABAD ","2022-07-09 09:24:48.201930",Active,NCR-OF-MT,NCR,Faridabad,28.40982,77.17988
"G2501* Bigbasket Chandu village","2022-07-11 15:54:35.836030",Active,NCR-ON-MT,NCR,Gurgaon,NULL,NULL
"G2502* Bigbasket sonipath","2022-07-11 16:01:07.643926",Active,NCR-ON-MT,NCR,Gurgaon,NULL,NULL
"D3689* Vikas egg shop ub ashish","2022-07-12 04:49:51.455139",Active,NCR-UB,NCR,Delhi,NULL,NULL
"D3690* Pardeep shop ub ashish","2022-07-12 05:03:52.391594",Active,NCR-UB,NCR,Delhi,NULL,NULL
"G2504* Haryana Fresh ","2022-07-14 06:30:28.993073",Active,Gurgaon-GT,NCR,Gurgaon,28.42718,77.06315
"D3694* sandeep liquid","2022-07-14 08:06:40.109833",Active,NCR-UB,NCR,Delhi,NULL,NULL
"D3699* AJEET UB HIMU ","2022-07-14 12:41:07.578296",Active,NCR-UB,NCR,Delhi,NULL,NULL
"D3700* Rmmd happy birthday","2022-07-14 14:00:01.027609",Active,Delhi-GT,NCR,Delhi,28.709,77.185
"D3701* deepak sales boy ","2022-07-17 05:07:56.527515",Active,NCR-UB,NCR,Delhi,NULL,NULL
"D3702* SHAHID KHAN","2022-07-18 03:13:12.905122",Active,NCR-UB,NCR,Delhi,NULL,NULL
"D3704* PARDEEP UB ","2022-07-21 08:21:50.934057",Active,NCR-UB,NCR,Delhi,NULL,NULL
"D3706* ZOMATO HYPERPURE PRIVATE LTD.","2022-07-22 09:12:27.000000",Active,NCR-UB,NCR,Delhi,NULL,NULL
"D3707* ROHTASH SINGH ","2022-07-22 10:57:20.166328",Active,NCR-UB,NCR,Delhi,NULL,NULL
"D3708* SONU UB HIMU","2022-07-22 12:02:32.920660",Active,NCR-UB,NCR,Delhi,NULL,NULL
"CD1004* RELIANCE RETAIL LIMITED (MOHALI) ","2022-07-22 13:01:28.493647",Active,NCR-ON-MT,NCR,Chandigarh,NULL,NULL
"G2508* trialnew","2022-07-23 07:55:28.959518",Active,NCR-OF-MT,NCR,Gurgaon,NULL,NULL
"D3710* Raj mandir sec-23 Dwarka","2022-07-23 13:58:17.708376",Active,Delhi-GT,NCR,Delhi,28.562,77.051
"D3711* ARVIND UB DIRECT SALE","2022-07-24 09:05:11.831946",Active,NCR-UB,NCR,Delhi,NULL,NULL
"D3712* harish ub himu","2022-07-25 10:30:07.747056",Active,NCR-UB,NCR,Delhi,NULL,NULL
"D3713* sachin ub himu ","2022-07-27 05:22:23.353586",Active,NCR-UB,NCR,Delhi,NULL,NULL
"F3087* Aariga Strategy Consultants Pvt Ltd Huda Market_1347908_Instamart","2022-07-27 12:34:12.189375",Active,NCR-ON-MT,NCR,Faridabad,28.43798,77.29827
"G2509* ZOMATO HYPERPURE PRIVATE LIMITED ( WH-GGN1)","2022-07-28 09:19:25.190259",Active,NCR-HORECA,NCR,Gurgaon,NULL,NULL
"JP1004* Max Reach Stores Pvt Ltd Lalkothi_1346769_Instamart","2022-07-28 15:11:47.817957",Active,NCR-ON-MT,NCR,Jaipur,NULL,NULL
"CD1005* Max Reach Stores Pvt Ltd Zirakpur_1348435_Instamart","2022-07-28 15:33:28.432660",Active,NCR-ON-MT,NCR,Chandigarh,NULL,NULL
"D3715* RELIANCE RETAIL LTD, (JAGATPURI) GF OF PROPERTY NOS : F-22-A & PARWANA ROAD JAGATPURI DELHI","2022-07-29 10:45:29.015369",Active,NCR-OF-MT,NCR,Delhi,28.6468,77.29178
"D3716* NEW SHOP CSTORE NETWORK PVT LTD C , 39, East Of Kailash , Delhi.","2022-07-29 13:15:09.427442",Active,NCR-OF-MT,NCR,Delhi,NULL,NULL
"D3717* ABHASH SHUKLA","2022-07-30 05:47:33.555749",Active,NCR-UB,NCR,Delhi,NULL,NULL
"G2510* Omg super mart","2022-07-30 10:49:02.756440",Active,Gurgaon-GT,NCR,Gurgaon,28.37784,77.0562
"D3718* R M EGG STORE ","2022-07-31 11:48:59.779522",Active,NCR-UB,NCR,Delhi,NULL,NULL
"D3719* PASTRY SHOP UB ANURAG","2022-07-31 14:26:49.081633",Active,NCR-UB,NCR,Delhi,NULL,NULL
"D3720* SARDAR UB MITHUN","2022-08-01 08:32:45.435499",Active,NCR-UB,NCR,Delhi,NULL,NULL
"D3722* sanjeet ub atif","2022-08-02 13:06:02.210522",Active,NCR-UB,NCR,Delhi,NULL,NULL
"G2511* Aida food pvt ltd","2022-08-03 11:18:26.435998",Active,Gurgaon-GT,NCR,Gurgaon,28.421,77.09
"D3724* nitesh ub direct sale ","2022-08-04 06:51:54.594074",Active,NCR-UB,NCR,Delhi,NULL,NULL
"G2515* SS Gurgaon Sector 48 ES50 PR (NM)","2022-08-04 08:02:37.272808",Active,NCR-ON-MT,NCR,Gurgaon,28.41562,77.03334
"G2520* SS Gurgaon Sector 66 ES53 (NM)","2022-08-04 16:14:12.378314",Active,NCR-ON-MT,NCR,Gurgaon,28.39116,77.0566
"D3725* RAVI UB ATIF FAZILPUR","2022-08-05 10:47:02.121523",Active,NCR-UB,NCR,Delhi,NULL,NULL
"D3727* JITENDER UB ATIF ","2022-08-05 11:54:11.346016",Active,NCR-UB,NCR,Delhi,NULL,NULL
"D3728* SHREE SHYAM ENTERPRISES","2022-08-05 12:25:27.487214",Active,NCR-UB,NCR,Delhi,NULL,NULL
"D3729* ANUJ UB NOIDA ","2022-08-05 12:38:46.598597",Active,NCR-UB,NCR,Delhi,NULL,NULL
"G2525* Deep Mart ","2022-08-06 12:14:22.141992",Active,Gurgaon-GT,NCR,Gurgaon,28.405,76.926
"G2527* shree bala ji mart 92","2022-08-06 12:21:45.915600",Active,Gurgaon-GT,NCR,Gurgaon,28.40853,76.92639
